stop_id,stop_name,stop_lat,stop_lon,stop_code,tiploc_code,stop_desc,stop_timezone,wheelchair_boarding,platform_code,parent_station,location_type
9100ABDARE1,Aberdare (Platform 1),51.7145226,-3.4418333,ABA,ABDARE,,Europe/London,0,1,910GABDARE,0
9100ABDARE2,Aberdare (Platform 2),51.7145226,-3.4418333,ABA,ABDARE,,Europe/London,0,2,910GABDARE,0
9100ABDVY1,Aberdovey (Platform 1),52.5443486,-4.0563163,AVY,ABDVY,,Europe/London,0,1,910GABDVY,0
9100ABDVYBUS,Aberdovey (Platform BUS),52.5443486,-4.0563163,AVY,ABDVY,,Europe/London,0,BUS,910GABDVY,0
9100ABER1,Aber (Platform 1),51.5748662,-3.2298096,ABE,ABER,,Europe/London,0,1,910GABER,0
9100ABER2,Aber (Platform 2),51.5748662,-3.2298096,ABE,ABER,,Europe/London,0,2,910GABER,0
9100ABERBUS,Aber (Platform BUS),51.5748662,-3.2298096,ABE,ABER,,Europe/London,0,BUS,910GABER,0
9100ABGLELE1,Abergele & Pensarn (Platform 1),53.2945866,-3.5826531,AGL,ABGLELE,,Europe/London,0,1,910GABGLELE,0
9100ABGLELE2,Abergele & Pensarn (Platform 2),53.2945866,-3.5826531,AGL,ABGLELE,,Europe/London,0,2,910GABGLELE,0
9100ABGLELEBUS,Abergele & Pensarn (Platform BUS),53.29457303057,-3.58262198838,AGL,ABGLELE,,Europe/London,0,BUS,910GABGLELE,0
9100ABRDEENBUS,Aberdeen (Platform BUS),57.1426487,-2.0976346,ABD,ABRDEEN,,Europe/London,1,BUS,910GABRDEEN,0
9100ABRE1,Abererch (Platform 1),52.8983791,-4.3749053,ABH,ABRE,,Europe/London,0,1,910GABRE,0
9100ABRGVNYBUS,Abergavenny (Platform BUS),51.81668982233,-3.0096467989,AGV,ABRGVNY,,Europe/London,0,BUS,910GABRGVNY,0
9100ABRYSTH1,Aberystwyth (Platform 1),52.4138938,-4.0815468,AYW,ABRYSTH,,Europe/London,1,1,910GABRYSTH,0
9100ABRYSTHBUS,Aberystwyth (Platform BUS),52.4138938,-4.0815468,AYW,ABRYSTH,,Europe/London,1,BUS,910GABRYSTH,0
9100ABWDBUS,Abbey Wood (Platform BUS),51.4909519,0.1202208,ABW,ABWD,,Europe/London,1,BUS,910GABWD,0
9100ACBG1,Acton Bridge (Cheshire) (Platform 1),53.2662973,-2.602769,ACB,ACBG,,Europe/London,2,1,910GACBG,0
9100ACBG2,Acton Bridge (Cheshire) (Platform 2),53.2662973,-2.602769,ACB,ACBG,,Europe/London,2,2,910GACBG,0
9100ACBG3,Acton Bridge (Cheshire) (Platform 3),53.2662973,-2.602769,ACB,ACBG,,Europe/London,2,3,910GACBG,0
9100ACBGBUS,Acton Bridge (Cheshire) (Platform BUS),53.26650719553,-2.6031265241,ACB,ACBG,,Europe/London,2,BUS,910GACBG,0
9100ACKLNGT1,Acklington (Platform 1),55.3072171,-1.6517687,ACK,ACKLNGT,,Europe/London,0,1,910GACKLNGT,0
9100ACKLNGT2,Acklington (Platform 2),55.3072171,-1.6517687,ACK,ACKLNGT,,Europe/London,0,2,910GACKLNGT,0
9100ACLE1,Acle (Platform 1),52.6346757,1.5439772,ACL,ACLE,,Europe/London,0,1,910GACLE,0
9100ACLE2,Acle (Platform 2),52.6346757,1.5439772,ACL,ACLE,,Europe/London,0,2,910GACLE,0
9100ACLEBUS,Acle (Platform BUS),52.63468201731,1.54391527585,ACL,ACLE,,Europe/London,0,BUS,910GACLE,0
9100ACOCKSG1,Acocks Green (Platform 1),52.4495299,-1.8192378,ACG,ACOCKSG,,Europe/London,0,1,910GACOCKSG,0
9100ACOCKSG2,Acocks Green (Platform 2),52.4495299,-1.8192378,ACG,ACOCKSG,,Europe/London,0,2,910GACOCKSG,0
9100ACRNGTNBUS,Accrington (Platform BUS),53.75297118076,-2.36954777807,ACR,ACRNGTN,,Europe/London,0,BUS,910GACRNGTN,0
9100ACTONML3,Acton Main Line (Platform 3),51.5169789,-0.2679825,AML,ACTONML,,Europe/London,1,3,910GACTONML,0
9100ACTONML4,Acton Main Line (Platform 4),51.5169789,-0.2679825,AML,ACTONML,,Europe/London,1,4,910GACTONML,0
9100ADERLYP1,Adderley Park (Platform 1),52.4830865,-1.8551418,ADD,ADERLYP,,Europe/London,0,1,910GADERLYP,0
9100ADERLYP2,Adderley Park (Platform 2),52.4830865,-1.8551418,ADD,ADERLYP,,Europe/London,0,2,910GADERLYP,0
9100ADISHAM1,Adisham (Platform 1),51.2413424,1.1987288,ADM,ADISHAM,,Europe/London,0,1,910GADISHAM,0
9100ADISHAM2,Adisham (Platform 2),51.2413424,1.1987288,ADM,ADISHAM,,Europe/London,0,2,910GADISHAM,0
9100ADISHAMBUS,Adisham (Platform BUS),51.24120153594,1.19908926763,ADM,ADISHAM,,Europe/London,0,BUS,910GADISHAM,0
9100ADLC1,Adlington (Cheshire) (Platform 1),53.3197238,-2.1336443,ADC,ADLC,,Europe/London,0,1,910GADLC,0
9100ADLC2,Adlington (Cheshire) (Platform 2),53.3197238,-2.1336443,ADC,ADLC,,Europe/London,0,2,910GADLC,0
9100ADLESTN1,Addlestone (Platform 1),51.3731128,-0.4845082,ASN,ADLESTN,,Europe/London,0,1,910GADLESTN,0
9100ADLESTN2,Addlestone (Platform 2),51.3731128,-0.4845082,ASN,ADLESTN,,Europe/London,0,2,910GADLESTN,0
9100ADLESTNBUS,Addlestone (Platform BUS),51.37304566372,-0.48445671716,ASN,ADLESTN,,Europe/London,0,BUS,910GADLESTN,0
9100ADNL1,Adlington (Lancashire) (Platform 1),53.6130719,-2.6028597,ADL,ADNL,,Europe/London,0,1,910GADNL,0
9100ADNL2,Adlington (Lancashire) (Platform 2),53.6130719,-2.6028597,ADL,ADNL,,Europe/London,0,2,910GADNL,0
9100AIRBLES1,Airbles (Platform 1),55.7823984,-3.9944314,AIR,AIRBLES,,Europe/London,0,1,910GAIRBLES,0
9100AIRBLES2,Airbles (Platform 2),55.7823984,-3.9944314,AIR,AIRBLES,,Europe/London,0,2,910GAIRBLES,0
9100ALBNHRCBUS,Albany Park (Platform BUS),51.4353837,0.1259653,AYP,ALBNHRC,,Europe/London,2,BUS,910GALBNYPK,0
9100ALBNYPK1,Albany Park (Platform 1),51.4353837,0.1259653,AYP,ALBNYPK,,Europe/London,2,1,910GALBNYPK,0
9100ALBNYPK2,Albany Park (Platform 2),51.4353837,0.1259653,AYP,ALBNYPK,,Europe/London,2,2,910GALBNYPK,0
9100ALBRGHT1,Albrighton (Platform 1),52.6382346,-2.2692137,ALB,ALBRGHT,,Europe/London,0,1,910GALBRGHT,0
9100ALBRGHT2,Albrighton (Platform 2),52.6382346,-2.2692137,ALB,ALBRGHT,,Europe/London,0,2,910GALBRGHT,0
9100ALDMSTNBUS,Aldermaston (Platform BUS),51.4022099,-1.1367025,AMT,ALDMSTN,,Europe/London,0,BUS,910GALDMSTN,0
9100ALDRSHTBUS,Aldershot (Platform BUS),51.24641837711,-0.75985979888,AHT,ALDRSHT,,Europe/London,1,BUS,910GALDRSHT,0
9100ALDTON1,Aldrington (Platform 1),50.8363558,-0.1817423,AGT,ALDTON,,Europe/London,2,1,910GALDTON,0
9100ALDTON2,Aldrington (Platform 2),50.8363558,-0.1817423,AGT,ALDTON,,Europe/London,2,2,910GALDTON,0
9100ALDTONBUS,Aldrington (Platform BUS),50.83638383869,-0.18382143408,AGT,ALDTON,,Europe/London,2,BUS,910GALDTON,0
9100ALERTNBUS,LIVERPOOL SOUTH PW HL (Platform BUS),53.3581339,-2.8888085,ALE,ALERTN,,Europe/London,0,BUS,910GLVRPSPY,0
9100ALEXNDPBUS,Alexandra Palace (Platform BUS),51.5982024,-0.1206625,AAP,ALEXNDP,,Europe/London,2,BUS,910GALEXNDP,0
9100ALFRETN1,Alfreton (Platform 1),53.1010582,-1.3698401,ALF,ALFRETN,,Europe/London,0,1,910GALFRETN,0
9100ALFRETN2,Alfreton (Platform 2),53.1010582,-1.3698401,ALF,ALFRETN,,Europe/London,0,2,910GALFRETN,0
9100ALFRETNBUS,Alfreton (Platform BUS),53.1010582,-1.3698401,ALF,ALFRETN,,Europe/London,0,BUS,910GALFRETN,0
9100ALLENSWBUS,Allens West (Platform BUS),54.52462276218,-1.36111669221,ALW,ALLENSW,,Europe/London,0,BUS,910GALLENSW,0
9100ALRESFD1,Alresford (Essex) (Platform 1),51.8539985,0.9970365,ALR,ALRESFD,,Europe/London,0,1,910GALRESFD,0
9100ALRESFD2,Alresford (Essex) (Platform 2),51.8539985,0.9970365,ALR,ALRESFD,,Europe/London,0,2,910GALRESFD,0
9100ALSAGER1,Alsager (Platform 1),53.0930252,-2.2988432,ASG,ALSAGER,,Europe/London,0,1,910GALSAGER,0
9100ALSAGER2,Alsager (Platform 2),53.0930252,-2.2988432,ASG,ALSAGER,,Europe/London,0,2,910GALSAGER,0
9100ALSHAM1,Aylesham (Platform 1),51.2274229,1.2095904,AYH,ALSHAM,,Europe/London,0,1,910GALSHAM,0
9100ALSHAM2,Aylesham (Platform 2),51.2274229,1.2095904,AYH,ALSHAM,,Europe/London,0,2,910GALSHAM,0
9100ALSHAMBUS,Aylesham (Platform BUS),51.22725429648,1.2094529054,AYH,ALSHAM,,Europe/London,0,BUS,910GALSHAM,0
9100ALTHORN1,Althorne (Essex) (Platform 1),51.6477849,0.7517966,ALN,ALTHORN,,Europe/London,1,1,910GALTHORN,0
9100ALTONBUS,Alton (Platform BUS),51.15196879112,-0.96691319996,AON,ALTON,,Europe/London,1,BUS,910GALTON,0
9100ALTRNHM3,Altrincham (Platform 3),53.3876561,-2.3470824,ALT,ALTRNHM,,Europe/London,1,3,910GALTRNHM,0
9100ALTRNHM4,Altrincham (Platform 4),53.3876561,-2.3470824,ALT,ALTRNHM,,Europe/London,1,4,910GALTRNHM,0
9100ALTRNHMBUS,Altrincham (Platform BUS),53.3876561,-2.3470824,ALT,ALTRNHM,,Europe/London,1,BUS,910GALTRNHM,0
9100ALXANDR1,Alexandria (Platform 1),55.9852719,-4.5773243,ALX,ALXANDR,,Europe/London,1,1,910GALXANDR,0
9100ALXANDRBUS,Alexandria (Platform BUS),55.98508314964,-4.57748423627,ALX,ALXANDR,,Europe/London,1,BUS,910GALXANDR,0
9100ALXPD1,Alexandra Parade (Platform 1),55.8633135,-4.2106057,AXP,ALXPD,,Europe/London,2,1,910GALXPD,0
9100ALXPD2,Alexandra Parade (Platform 2),55.8633135,-4.2106057,AXP,ALXPD,,Europe/London,2,2,910GALXPD,0
9100AMERSHM1,Amersham (Platform 1),51.6740875,-0.6073643,AMR,AMERSHM,,Europe/London,1,1,910GAMERSHM,0
9100AMERSHM2,Amersham (Platform 2),51.6740875,-0.6073643,AMR,AMERSHM,,Europe/London,1,2,910GAMERSHM,0
9100AMERSHM3,Amersham (Platform 3),51.6740875,-0.6073643,AMR,AMERSHM,,Europe/London,1,3,910GAMERSHM,0
9100AMLY1,Amberley (Platform 1),50.8966534,-0.5419326,AMY,AMLY,,Europe/London,0,1,910GAMLY,0
9100AMLY2,Amberley (Platform 2),50.8966534,-0.5419326,AMY,AMLY,,Europe/London,0,2,910GAMLY,0
9100AMMANFD1,Ammanford (Platform 1),51.7955509,-3.996828,AMF,AMMANFD,,Europe/London,0,1,910GAMMANFD,0
9100AMMANFDBUS,Ammanford (Platform BUS),51.79597472721,-3.99673488783,AMF,AMMANFD,,Europe/London,1,BUS,910GAMMANFD,0
9100ANCASTR1,Ancaster (Platform 1),52.987708,-0.5353535,ANC,ANCASTR,,Europe/London,0,1,910GANCASTR,0
9100ANCASTR2,Ancaster (Platform 2),52.987708,-0.5353535,ANC,ANCASTR,,Europe/London,0,2,910GANCASTR,0
9100ANDOVERBUS,Andover (Platform BUS),51.211559,-1.4927767,ADV,ANDOVER,,Europe/London,0,BUS,910GANDOVER,0
9100ANGMRNG1,Angmering (Platform 1),50.8165151,-0.4881271,ANG,ANGMRNG,,Europe/London,0,1,910GANGMRNG,0
9100ANGMRNG2,Angmering (Platform 2),50.8165151,-0.4881271,ANG,ANGMRNG,,Europe/London,0,2,910GANGMRNG,0
9100ANGMRNGBUS,Angmering (Platform BUS),50.81657531232,-0.48939393986,ANG,ANGMRNG,,Europe/London,0,BUS,910GANGMRNG,0
9100ANSLBUS,Anniesland (Platform BUS),55.88935027219,-4.32195682994,ANL,ANSL,,Europe/London,0,BUS,910GANSL,0
9100APBY1,Appleby (Platform 1),54.58041,-2.486536,APP,APBY,,Europe/London,0,1,910GAPBY,0
9100APBY2,Appleby (Platform 2),54.58041,-2.486536,APP,APBY,,Europe/London,0,2,910GAPBY,0
9100APBYBUS,Appleby (Platform BUS),54.58034642846,-2.48669223087,APP,APBY,,Europe/London,0,BUS,910GAPBY,0
9100APDR1,Appledore (Kent) (Platform 1),51.0332869,0.8165763,APD,APDR,,Europe/London,0,1,910GAPDR,0
9100APDR2,Appledore (Kent) (Platform 2),51.0332869,0.8165763,APD,APDR,,Europe/London,0,2,910GAPDR,0
9100APDRBUS,Appledore (Kent) (Platform BUS),51.0332869,0.8165763,APD,APDR,,Europe/London,0,BUS,910GAPDR,0
9100APLYBDGBUS,Appley Bridge (Platform BUS),53.57867074359,-2.71925209845,APB,APLYBDG,,Europe/London,0,BUS,910GAPLYBDG,0
9100APSLEY1,Apsley (Platform 1),51.732365,-0.4629888,APS,APSLEY,,Europe/London,0,1,910GAPSLEY,0
9100APSLEY2,Apsley (Platform 2),51.732365,-0.4629888,APS,APSLEY,,Europe/London,0,2,910GAPSLEY,0
9100APSLEY3,Apsley (Platform 3),51.732365,-0.4629888,APS,APSLEY,,Europe/London,0,3,910GAPSLEY,0
9100APSLEY4,Apsley (Platform 4),51.732365,-0.4629888,APS,APSLEY,,Europe/London,0,4,910GAPSLEY,0
9100APSLEY6,Apsley (Platform 6),51.73252176017,-0.46293473253,APS,APSLEY,,Europe/London,0,6,910GAPSLEY,0
9100ARBROTHBUS,Arbroath (Platform BUS),56.5593376,-2.5892737,ARB,ARBROTH,,Europe/London,1,BUS,910GARBROTH,0
9100ARDRSHB1,Ardrossan Harbour (Platform 1),55.6400139,-4.8213544,ADS,ARDRSHB,,Europe/London,1,1,910GARDRSHB,0
9100ARDRSSB1,Ardrossan South Beach (Platform 1),55.6411682,-4.8005743,ASB,ARDRSSB,,Europe/London,1,1,910GARDRSSB,0
9100ARDRSTN1,Ardrossan Town (Platform 1),55.6398834,-4.8125364,ADN,ARDRSTN,,Europe/London,1,1,910GARDRSTN,0
9100ARDWICK1,Ardwick (Platform 1),53.47154982765,-2.21432180977,ADK,ARDWICK,,Europe/London,2,1,910GARDWICK,0
9100ARDWICK2,Ardwick (Platform 2),53.4711613,-2.2132093,ADK,ARDWICK,,Europe/London,2,2,910GARDWICK,0
9100ARGYLST1,Argyle Street (Platform 1),55.8576091,-4.2506187,AGS,ARGYLST,,Europe/London,2,1,910GARGYLST,0
9100ARGYLST2,Argyle Street (Platform 2),55.8576091,-4.2506187,AGS,ARGYLST,,Europe/London,2,2,910GARGYLST,0
9100ARLSEY1,Arlesey (Platform 1),52.0258212,-0.266464,ARL,ARLSEY,,Europe/London,0,1,910GARLSEY,0
9100ARLSEY2,Arlesey (Platform 2),52.0258212,-0.266464,ARL,ARLSEY,,Europe/London,0,2,910GARLSEY,0
9100ARLSEYBUS,Arlesey (Platform BUS),52.0258212,-0.266464,ARL,ARLSEY,,Europe/London,0,BUS,910GARLSEY,0
9100ARMDALE1,Armadale (West Lothian) (Platform 1),55.8865302,-3.6929618,ARM,ARMDALE,,Europe/London,1,1,910GARMDALE,0
9100ARMDALE2,Armadale (West Lothian) (Platform 2),55.8865302,-3.6929618,ARM,ARMDALE,,Europe/London,1,2,910GARMDALE,0
9100ARMTHWTBUS,Armathwaite (Platform BUS),54.80946514572,-2.77207104301,AWT,ARMTHWT,,Europe/London,0,BUS,910GARMTHWT,0
9100ARNSIDE1,Arnside (Platform 1),54.202601,-2.8280672,ARN,ARNSIDE,,Europe/London,0,1,910GARNSIDE,0
9100ARNSIDE2,Arnside (Platform 2),54.202601,-2.8280672,ARN,ARNSIDE,,Europe/London,0,2,910GARNSIDE,0
9100ARRAM1,Arram (Platform 1),53.8841174,-0.4263681,ARR,ARRAM,,Europe/London,0,1,910GARRAM,0
9100ARRAM2,Arram (Platform 2),53.8841174,-0.4263681,ARR,ARRAM,,Europe/London,0,2,910GARRAM,0
9100ARUNDEL1,Arundel (Platform 1),50.8480121,-0.5462656,ARU,ARUNDEL,,Europe/London,0,1,910GARUNDEL,0
9100ARUNDEL2,Arundel (Platform 2),50.8480121,-0.5462656,ARU,ARUNDEL,,Europe/London,0,2,910GARUNDEL,0
9100ASCOTBUS,Ascot (Berks) (Platform BUS),51.40624365202,-0.6758331694,ACT,ASCOT,,Europe/London,1,BUS,910GASCOT,0
9100ASFDMSX1,Ashford (Surrey) (Platform 1),51.436496,-0.4683126,AFS,ASFDMSX,,Europe/London,0,1,910GASFDMSX,0
9100ASFDMSX2,Ashford (Surrey) (Platform 2),51.436496,-0.4683126,AFS,ASFDMSX,,Europe/London,0,2,910GASFDMSX,0
9100ASFDMSXBUS,Ashford (Platform BUS),51.43650719705,-0.46807091587,AFS,ASFDMSX,,Europe/London,0,BUS,910GASFDMSX,0
9100ASHCHRCBUS,Ashchurch for Tewkesbury (Platform BUS),51.99890403964,-2.10875994357,ASC,ASHCHRC,,Europe/London,0,BUS,910GASHCHRC,0
9100ASHD1,Ashtead (Platform 1),51.3179225,-0.3073912,AHD,ASHD,,Europe/London,0,1,910GASHD,0
9100ASHD2,Ashtead (Platform 2),51.3179225,-0.3073912,AHD,ASHD,,Europe/London,0,2,910GASHD,0
9100ASHDBUS,Ashtead (Platform BUS),51.3179225,-0.3073912,AHD,ASHD,,Europe/London,0,BUS,910GASHD,0
9100ASHFKY1A,Ashford International (Platform 1A),51.14333998281783,0.874731153374899,AFK,ASHFKY,,Europe/London,0,1A,910GASHFKY,0
9100ASHFKY1B,Ashford International (Platform 1B),51.14333998281783,0.874731153374899,AFK,ASHFKY,,Europe/London,0,1B,910GASHFKY,0
9100ASHFKY1C,Ashford International (Platform 1C),51.14333998281783,0.874731153374899,AFK,ASHFKY,,Europe/London,0,1C,910GASHFKY,0
9100ASHFKY2A,Ashford International (Platform 2A),51.14333998281783,0.874731153374899,AFK,ASHFKY,,Europe/London,0,2A,910GASHFKY,0
9100ASHFKY2B,Ashford International (Platform 2B),51.14333998281783,0.874731153374899,AFK,ASHFKY,,Europe/London,0,2B,910GASHFKY,0
9100ASHFKY2C,Ashford International (Platform 2C),51.14333998281783,0.874731153374899,AFK,ASHFKY,,Europe/London,0,2C,910GASHFKY,0
9100ASHFKY4,Ashford International (Platform 4),51.14370585721,0.87619737944,AFK,ASHFKY,,Europe/London,1,4,910GASHFKY,0
9100ASHFKY5A,Ashford International (Platform 5A),51.14302500079898,0.8763744661053396,AFK,ASHFKY,,Europe/London,0,5A,910GASHFKY,0
9100ASHFKY5B,Ashford International (Platform 5B),51.14302500079898,0.8763744661053396,AFK,ASHFKY,,Europe/London,0,5B,910GASHFKY,0
9100ASHFKY5C,Ashford International (Platform 5C),51.14302500079898,0.8763744661053396,AFK,ASHFKY,,Europe/London,0,5C,910GASHFKY,0
9100ASHFKY6A,Ashford International (Platform 6A),51.14302500079898,0.8763744661053396,AFK,ASHFKY,,Europe/London,0,6A,910GASHFKY,0
9100ASHFKY6B,Ashford International (Platform 6B),51.14302500079898,0.8763744661053396,AFK,ASHFKY,,Europe/London,0,6B,910GASHFKY,0
9100ASHFKY6C,Ashford International (Platform 6C),51.14302500079898,0.8763744661053396,AFK,ASHFKY,,Europe/London,0,6C,910GASHFKY,0
9100ASHFKYBUS,Ashford International (Platform BUS),51.143379,0.8752323,AFK,ASHFKY,,Europe/London,1,BUS,910GASHFKY,0
9100ASHH1,Ash (Platform 1),51.2497298,-0.7129145,ASH,ASHH,,Europe/London,0,1,910GASHH,0
9100ASHH2,Ash (Platform 2),51.2497298,-0.7129145,ASH,ASHH,,Europe/London,0,2,910GASHH,0
9100ASHHBUS,Ash (Platform BUS),51.24959731625,-0.71280538722,ASH,ASHH,,Europe/London,0,BUS,910GASHH,0
9100ASHLEY1,Ashley (Platform 1),53.3557218,-2.341439,ASY,ASHLEY,,Europe/London,0,1,910GASHLEY,0
9100ASHLEY2,Ashley (Platform 2),53.3557218,-2.341439,ASY,ASHLEY,,Europe/London,0,2,910GASHLEY,0
9100ASHLEYBUS,Ashley (Platform BUS),53.35572365976,-2.34146042588,ASY,ASHLEY,,Europe/London,0,BUS,910GASHLEY,0
9100ASHONUL1,Ashton-under-Lyne (Platform 1),53.4911925,-2.09355,AHN,ASHONUL,,Europe/London,0,1,910GASHONUL,0
9100ASHONUL2,Ashton-under-Lyne (Platform 2),53.4911925,-2.09355,AHN,ASHONUL,,Europe/London,0,2,910GASHONUL,0
9100ASHURST1,Ashurst (Kent) (Platform 1),51.1284231,0.1526024,AHS,ASHURST,,Europe/London,0,1,910GASHURST,0
9100ASHURST2,Ashurst (Kent) (Platform 2),51.1284231,0.1526024,AHS,ASHURST,,Europe/London,0,2,910GASHURST,0
9100ASHURSTBUS,Ashurst (Platform BUS),51.12866279737,0.15265220319,AHS,ASHURST,,Europe/London,0,BUS,910GASHURST,0
9100ASHVALE1,Ash Vale (Platform 1),51.2725337,-0.7214571,AHV,ASHVALE,,Europe/London,2,1,910GASHVALE,0
9100ASHVALE2,Ash Vale (Platform 2),51.2725337,-0.7214571,AHV,ASHVALE,,Europe/London,2,2,910GASHVALE,0
9100ASHVALEBUS,Ash Vale (Platform BUS),51.2722469404,-0.72164850871,AHV,ASHVALE,,Europe/London,2,BUS,910GASHVALE,0
9100ASHWELC1,Ashwell & Morden (Platform 1),52.0306258,-0.1099212,AWM,ASHWELC,,Europe/London,2,1,910GASHWELC,0
9100ASHWELC2,Ashwell & Morden (Platform 2),52.0306258,-0.1099212,AWM,ASHWELC,,Europe/London,2,2,910GASHWELC,0
9100ASHWELCBUS,Ashwell & Morden (Platform BUS),52.03077214672,-0.10978883668,AWM,ASHWELC,,Europe/London,2,BUS,910GASHWELC,0
9100ASKAM1,Askam (Platform 1),54.1891252,-3.2045609,ASK,ASKAM,,Europe/London,0,1,910GASKAM,0
9100ASKAM2,Askam (Platform 2),54.1891252,-3.2045609,ASK,ASKAM,,Europe/London,0,2,910GASKAM,0
9100ASLCKTN1,Aslockton (Platform 1),52.9515525,-0.8984194,ALK,ASLCKTN,,Europe/London,0,1,910GASLCKTN,0
9100ASLCKTN2,Aslockton (Platform 2),52.9515525,-0.8984194,ALK,ASLCKTN,,Europe/London,0,2,910GASLCKTN,0
9100ASPLEYG1,Aspley Guise (Platform 1),52.0212048,-0.6326933,APG,ASPLEYG,,Europe/London,1,1,910GASPLEYG,0
9100ASPLEYG2,Aspley Guise (Platform 2),52.0212048,-0.6326933,APG,ASPLEYG,,Europe/London,1,2,910GASPLEYG,0
9100ASPTRIA1,Aspatria (Platform 1),54.7589539,-3.3318813,ASP,ASPTRIA,,Europe/London,0,1,910GASPTRIA,0
9100ASPTRIA2,Aspatria (Platform 2),54.7589539,-3.3318813,ASP,ASPTRIA,,Europe/London,0,2,910GASPTRIA,0
9100ATHRSTN1,Atherstone (Platform 1),52.5784071,-1.5522587,ATH,ATHRSTN,,Europe/London,0,1,910GATHRSTN,0
9100ATHRSTN2,Atherstone (Platform 2),52.5784071,-1.5522587,ATH,ATHRSTN,,Europe/London,0,2,910GATHRSTN,0
9100ATNBRO1,Attenborough (Platform 1),52.9064132,-1.2311523,ATB,ATNBRO,,Europe/London,0,1,910GATNBRO,0
9100ATNBRO2,Attenborough (Platform 2),52.9064132,-1.2311523,ATB,ATNBRO,,Europe/London,0,2,910GATNBRO,0
9100ATNBROBUS,Attenborough (Platform BUS),52.90621295338,-1.23141548016,ATB,ATNBRO,,Europe/London,0,BUS,910GATNBRO,0
9100ATTLBON1,Attleborough (Platform 1),52.5144202,1.0222088,ATL,ATTLBON,,Europe/London,0,1,910GATTLBON,0
9100ATTLBON2,Attleborough (Platform 2),52.5144202,1.0222088,ATL,ATTLBON,,Europe/London,0,2,910GATTLBON,0
9100AVONMTHBUS,Avonmouth (Platform BUS),51.4997221,-2.6988623,AVN,AVONMTH,,Europe/London,0,BUS,910GAVONMTH,0
9100AYLESFD1,Aylesford (Platform 1),51.3015328,0.4657666,AYL,AYLESFD,,Europe/London,0,1,910GAYLESFD,0
9100AYLESFD2,Aylesford (Platform 2),51.3015328,0.4657666,AYL,AYLESFD,,Europe/London,0,2,910GAYLESFD,0
9100AYLESFDBUS,Aylesford (Platform BUS),51.301317844,0.46617068355,AYL,AYLESFD,,Europe/London,0,BUS,910GAYLESFD,0
9100AYLSBRYBUS,Aylesbury (Platform BUS),51.81389057916,-0.81509590543,AYS,AYLSBRY,,Europe/London,1,BUS,910GAYLSBRY,0
9100AYLSPWY1,Aylesbury Vale Parkway (Platform 1),51.8312778,-0.859831,AVP,AYLSPWY,,Europe/London,1,1,910GAYLSPWY,0
9100AYLSPWYBUS,Aylesbury Vale Parkway (Platform BUS),51.83115901817,-0.86018234228,AVP,AYLSPWY,,Europe/London,1,BUS,910GAYLSPWY,0
9100BACHEBUS,Bache (Platform BUS),53.20878566244,-2.89167004578,BAC,BACHE,,Europe/London,0,BUS,910GBACHE,0
9100BAGE1,Burnage (Platform 1),53.4221262,-2.2151579,BNA,BAGE,,Europe/London,0,1,910GBAGE,0
9100BAGE2,Burnage (Platform 2),53.4221262,-2.2151579,BNA,BAGE,,Europe/London,0,2,910GBAGE,0
9100BAGSHOT1,Bagshot (Platform 1),51.3643336,-0.6885039,BAG,BAGSHOT,,Europe/London,0,1,910GBAGSHOT,0
9100BAGSHOT2,Bagshot (Platform 2),51.3643336,-0.6885039,BAG,BAGSHOT,,Europe/London,0,2,910GBAGSHOT,0
9100BAGSHOTBUS,Bagshot (Platform BUS),51.36436751968,-0.68866191091,BAG,BAGSHOT,,Europe/London,0,BUS,910GBAGSHOT,0
9100BALCOMBBUS,Balcombe (Platform BUS),51.0555957,-0.137032,BAB,BALCOMB,,Europe/London,0,BUS,910GBALCOMB,0
9100BALDOCKBUS,Baldock (Platform BUS),51.99287120941,-0.18756367372,BDK,BALDOCK,,Europe/London,2,BUS,910GBALDOCK,0
9100BALHAMBUS,Balham (Platform BUS),51.4428285,-0.1514426,BAL,BALHAM,,Europe/London,0,BUS,910GBALHAM,0
9100BALISTN1,Baillieston (Platform 1),55.8445129,-4.1137169,BIO,BALISTN,,Europe/London,1,1,910GBALISTN,0
9100BALISTN2,Baillieston (Platform 2),55.8445129,-4.1137169,BIO,BALISTN,,Europe/London,1,2,910GBALISTN,0
9100BALLOCH1,Balloch (Platform 1),56.0023629,-4.5832835,BHC,BALLOCH,,Europe/London,1,1,910GBALLOCH,0
9100BALLOCHBUS,Balloch (Platform BUS),56.00293367261,-4.5834854062,BHC,BALLOCH,,Europe/London,1,BUS,910GBALLOCH,0
9100BAMFORDBUS,Bamford (Platform BUS),53.33899974575,-1.68908172623,BAM,BAMFORD,,Europe/London,0,BUS,910GBAMFORD,0
9100BANGORBUS,Bangor (Gwynedd) (Platform BUS),53.22228257233,-4.13587993187,BNG,BANGOR,,Europe/London,1,BUS,910GBANGOR,0
9100BANSTED1,Banstead (Platform 1),51.3294324,-0.2137196,BAD,BANSTED,,Europe/London,2,1,910GBANSTED,0
9100BARELABUS,Bare Lane (Platform BUS),54.07454140233,-2.83533041899,BAR,BARELA,,Europe/London,0,BUS,910GBARELA,0
9100BARGOEDBUS,Bargoed (Platform BUS),51.6929046,-3.2300431,BGD,BARGOED,,Europe/London,0,BUS,910GBARGOED,0
9100BARMING1,Barming (Platform 1),51.2848536,0.4792926,BMG,BARMING,,Europe/London,0,1,910GBARMING,0
9100BARMING2,Barming (Platform 2),51.2848536,0.4792926,BMG,BARMING,,Europe/London,0,2,910GBARMING,0
9100BARMINGBUS,Barming (Platform BUS),51.2848536,0.4792926,BMG,BARMING,,Europe/London,0,BUS,910GBARMING,0
9100BARNESBUS,Barnes (Platform BUS),51.46708608626,-0.24216421148,BNS,BARNES,,Europe/London,0,BUS,910GBARNES,0
9100BAROW0,Barrow-in-Furness (Platform 0),54.11900014196,-3.22612033522,BIF,BAROW,,Europe/London,1,0,910GBAROW,0
9100BAROWBUS,Barrow-in-Furness (Platform BUS),54.11900014196,-3.22612033522,BIF,BAROW,,Europe/London,1,BUS,910GBAROW,0
9100BAROWOS1,Barrow-upon-Soar (Platform 1),52.7494311,-1.1454909,BWS,BAROWOS,,Europe/London,0,1,910GBAROWOS,0
9100BAROWOS2,Barrow-upon-Soar (Platform 2),52.7494311,-1.1454909,BWS,BAROWOS,,Europe/London,0,2,910GBAROWOS,0
9100BARRYDK1,Barry Docks (Platform 1),51.4026036,-3.261156,BYD,BARRYDK,,Europe/London,0,1,910GBARRYDK,0
9100BARRYDK2,Barry Docks (Platform 2),51.4026036,-3.261156,BYD,BARRYDK,,Europe/London,0,2,910GBARRYDK,0
9100BARRYIS1,Barry Island (Platform 1),51.3923125,-3.2742115,BYI,BARRYIS,,Europe/London,0,1,910GBARRYIS,0
9100BARWHVN1,Barrow Haven (Platform 1),53.6974548,-0.392889,BAV,BARWHVN,,Europe/London,1,1,910GBARWHVN,0
9100BATABAL1,Bat & Ball (Platform 1),51.2901134,0.1941812,BBL,BATABAL,,Europe/London,0,1,910GBATABAL,0
9100BATABAL2,Bat & Ball (Platform 2),51.2901134,0.1941812,BBL,BATABAL,,Europe/London,0,2,910GBATABAL,0
9100BATABALBUS,Bat & Ball (Platform BUS),51.2901134,0.1941812,BBL,BATABAL,,Europe/London,0,BUS,910GBATABAL,0
9100BATHSPABUS,Bath Spa (Platform BUS),51.3776019,-2.3567189,BTH,BATHSPA,,Europe/London,1,BUS,910GBATHSPA,0
9100BATLEY1,Batley (Platform 1),53.7102081,-1.6230114,BTL,BATLEY,,Europe/London,0,1,910GBATLEY,0
9100BATLEY2,Batley (Platform 2),53.7102081,-1.6230114,BTL,BATLEY,,Europe/London,0,2,910GBATLEY,0
9100BATRSPKBUS,Battersea Park (Platform BUS),51.47761,-0.1475846,BAK,BATRSPK,,Europe/London,2,BUS,910GBATRSPK,0
9100BATTLE1,Battle (Platform 1),50.9128867,0.4949233,BAT,BATTLE,,Europe/London,0,1,910GBATTLE,0
9100BATTLE2,Battle (Platform 2),50.9128867,0.4949233,BAT,BATTLE,,Europe/London,0,2,910GBATTLE,0
9100BATTLEBUS,Battle (Platform BUS),50.9128867,0.4949233,BAT,BATTLE,,Europe/London,0,BUS,910GBATTLE,0
9100BAYFORD1,Bayford (Platform 1),51.7579011,-0.0957274,BAY,BAYFORD,,Europe/London,0,1,910GBAYFORD,0
9100BAYFORD2,Bayford (Platform 2),51.7579011,-0.0957274,BAY,BAYFORD,,Europe/London,0,2,910GBAYFORD,0
9100BAYFORDBUS,Bayford (Platform BUS),51.7579011,-0.0957274,BAY,BAYFORD,,Europe/London,0,BUS,910GBAYFORD,0
9100BCHGRV1,Birchgrove (Platform 1),51.5215246,-3.2022086,BCG,BCHGRV,,Europe/London,0,1,910GBCHGRV,0
9100BCKNHMH1,Beckenham Hill (Platform 1),51.4245222,-0.0159101,BEC,BCKNHMH,,Europe/London,0,1,910GBCKNHMH,0
9100BCKNHMH2,Beckenham Hill (Platform 2),51.4245222,-0.0159101,BEC,BCKNHMH,,Europe/London,0,2,910GBCKNHMH,0
9100BCKNHMJ1,Beckenham Junction (Platform 1),51.41103510697,-0.02581274155,BKJ,BCKNHMJ,,Europe/London,0,1,910GBCKNHMJ,0
9100BCKNHMJ2,Beckenham Junction (Platform 2),51.4110623,-0.0259866,BKJ,BCKNHMJ,,Europe/London,0,2,910GBCKNHMJ,0
9100BCKNHMJ3,Beckenham Junction (Platform 3),51.4110623,-0.0259866,BKJ,BCKNHMJ,,Europe/London,0,3,910GBCKNHMJ,0
9100BCKNHMJ4,Beckenham Junction (Platform 4),51.4110623,-0.0259866,BKJ,BCKNHMJ,,Europe/London,0,4,910GBCKNHMJ,0
9100BCKNHMJBUS,Beckenham Junction (Platform BUS),51.4110623,-0.0259866,BKJ,BCKNHMJ,,Europe/London,0,BUS,910GBCKNHMJ,0
9100BCKNMJC1,Beckenham Junction (Platform 1),51.4110623,-0.0259866,BKJ,BCKNMJC,,Europe/London,0,1,910GBCKNHMJ,0
9100BCKWATR1,Blackwater (Platform 1),51.3315657,-0.776776,BAW,BCKWATR,,Europe/London,0,1,910GBCKWATR,0
9100BCKWATR2,Blackwater (Platform 2),51.3315657,-0.776776,BAW,BCKWATR,,Europe/London,0,2,910GBCKWATR,0
9100BCKWATRBUS,Blackwater (Platform BUS),51.3315815812,-0.77674093582,BAW,BCKWATR,,Europe/London,0,BUS,910GBCKWATR,0
9100BCKY1,Buckley (Platform 1),53.1625354,-3.0551852,BCK,BCKY,,Europe/London,0,1,910GBCKY,0
9100BCKY2,Buckley (Platform 2),53.1625354,-3.0551852,BCK,BCKY,,Europe/London,0,2,910GBCKY,0
9100BCKYBUS,Buckley (Platform BUS),53.16303579963,-3.05592567548,BCK,BCKY,,Europe/London,0,BUS,910GBCKY,0
9100BCNGNOS1,Birchington-on-Sea (Platform 1),51.3775024,1.3009038,BCH,BCNGNOS,,Europe/London,0,1,910GBCNGNOS,0
9100BCNGNOS2,Birchington-on-Sea (Platform 2),51.3775024,1.3009038,BCH,BCNGNOS,,Europe/London,0,2,910GBCNGNOS,0
9100BCNGNOSBUS,Birchington-on-Sea (Platform BUS),51.3775024,1.3009038,BCH,BCNGNOS,,Europe/London,0,BUS,910GBCNGNOS,0
9100BCNSFLDBUS,Beaconsfield (Platform BUS),51.61129123735,-0.64382219785,BCF,BCNSFLD,,Europe/London,0,BUS,910GBCNSFLD,0
9100BCSTNBUS,Bicester North (Platform BUS),51.90348276254,-1.15038340304,BCS,BCSTN,,Europe/London,1,BUS,910GBCSTN,0
9100BCWD1,Bricket Wood (Platform 1),51.7055662,-0.3591176,BWO,BCWD,,Europe/London,1,1,910GBCWD,0
9100BDHMNRD1,Bedhampton (Platform 1),50.85369449195112,-0.9969688461782248,BDH,BDHMNRD,,Europe/London,0,1,910GBDHMPTN,0
9100BDHMNRD2,Bedhampton (Platform 2),50.85369449195112,-0.9969688461782248,BDH,BDHMNRD,,Europe/London,0,2,910GBDHMPTN,0
9100BDHMPTN1,Bedhampton (Platform 1),50.8539846,-0.9962717,BDH,BDHMPTN,,Europe/London,0,1,910GBDHMPTN,0
9100BDHMPTN2,Bedhampton (Platform 2),50.8539846,-0.9962717,BDH,BDHMPTN,,Europe/London,0,2,910GBDHMPTN,0
9100BDHMPTNBUS,Bedhampton (Platform BUS),50.8539846,-0.9962717,BDH,BDHMPTN,,Europe/London,0,BUS,910GBDHMPTN,0
9100BDMNSTRBUS,Bedminster (Platform BUS),51.4406058,-2.5936286,BMT,BDMNSTR,,Europe/London,0,BUS,910GBDMNSTR,0
9100BEARLEY1,Bearley (Platform 1),52.2449168,-1.7498157,BER,BEARLEY,,Europe/London,0,1,910GBEARLEY,0
9100BEARLEY3,Bearley (Platform 3),52.24441041943,-1.75025528142,BER,BEARLEY,,Europe/London,0,3,910GBEARLEY,0
9100BEDFDMBUS,Bedford (Platform BUS),52.1361826,-0.4797291,BDM,BEDFDM,,Europe/London,1,BUS,910GBEDFDM,0
9100BEDWRTH1,Bedworth (Platform 1),52.4793285,-1.4674675,BEH,BEDWRTH,,Europe/London,0,1,910GBEDWRTH,0
9100BEDWRTH2,Bedworth (Platform 2),52.4793285,-1.4674675,BEH,BEDWRTH,,Europe/London,0,2,910GBEDWRTH,0
9100BEDWRTHBUS,Bedworth (Platform BUS),52.47929669984,-1.46739207733,BEH,BEDWRTH,,Europe/London,0,BUS,910GBEDWRTH,0
9100BEDYNBUS,Bedwyn (Platform BUS),51.3795602,-1.5988756,BDW,BEDYN,,Europe/London,0,BUS,910GBEDYN,0
9100BEKSBRN1,Bekesbourne (Platform 1),51.2614031,1.1372301,BKS,BEKSBRN,,Europe/London,0,1,910GBEKSBRN,0
9100BEKSBRN2,Bekesbourne (Platform 2),51.2614031,1.1372301,BKS,BEKSBRN,,Europe/London,0,2,910GBEKSBRN,0
9100BEKSBRNBUS,Bekesbourne (Platform BUS),51.26135755917,1.13670784046,BKS,BEKSBRN,,Europe/London,0,BUS,910GBEKSBRN,0
9100BELM1,Belmont (Platform 1),51.3438964,-0.1987852,BLM,BELM,,Europe/London,1,1,910GBELM,0
9100BELPER1,Belper (Platform 1),53.0242729,-1.4825631,BLP,BELPER,,Europe/London,0,1,910GBELPER,0
9100BELPER2,Belper (Platform 2),53.0242729,-1.4825631,BLP,BELPER,,Europe/London,0,2,910GBELPER,0
9100BELVEDR1,Belvedere (Platform 1),51.4922273,0.1533667,BVD,BELVEDR,,Europe/London,0,1,910GBELVEDR,0
9100BELVEDR2,Belvedere (Platform 2),51.4922273,0.1533667,BVD,BELVEDR,,Europe/London,0,2,910GBELVEDR,0
9100BELVEDRBUS,Belvedere (Platform BUS),51.4922273,0.1533667,BVD,BELVEDR,,Europe/London,0,BUS,910GBELVEDR,0
9100BEMPTON1,Bempton (Platform 1),54.1277914,-0.180715,BEM,BEMPTON,,Europe/London,1,1,910GBEMPTON,0
9100BENFLETBUS,Benfleet (Platform BUS),51.5441005,0.5616239,BEF,BENFLET,,Europe/London,1,BUS,910GBENFLET,0
9100BEREALS1,Bere Alston (Platform 1),50.4856076,-4.2003187,BAS,BEREALS,,Europe/London,1,1,910GBEREALS,0
9100BEREFRS1,Bere Ferrers (Platform 1),50.4510874,-4.1814548,BFE,BEREFRS,,Europe/London,1,1,910GBEREFRS,0
9100BEREFRSGUN,Bere Ferrers (Platform GUN),50.4510874,-4.1814548,BFE,BEREFRS,,Europe/London,1,GUN,910GBEREFRS,0
9100BEREFRSPLY,Bere Ferrers (Platform PLY),50.4510874,-4.1814548,BFE,BEREFRS,,Europe/London,1,PLY,910GBEREFRS,0
9100BERKHMD1,Berkhamsted (Platform 1),51.7635571,-0.5626636,BKM,BERKHMD,,Europe/London,0,1,910GBERKHMD,0
9100BERKHMD2,Berkhamsted (Platform 2),51.7635571,-0.5626636,BKM,BERKHMD,,Europe/London,0,2,910GBERKHMD,0
9100BERKHMD3,Berkhamsted (Platform 3),51.7635571,-0.5626636,BKM,BERKHMD,,Europe/London,0,3,910GBERKHMD,0
9100BERKHMD4,Berkhamsted (Platform 4),51.7635571,-0.5626636,BKM,BERKHMD,,Europe/London,0,4,910GBERKHMD,0
9100BERKHMD6,Berkhamsted (Platform 6),51.76313385488,-0.56201289972,BKM,BERKHMD,,Europe/London,0,6,910GBERKHMD,0
9100BERMPRK1,Bermuda Park (Platform 1),52.5033421,-1.4725898,BEP,BERMPRK,,Europe/London,0,1,910GBERMPRK,0
9100BERMPRK2,Bermuda Park (Platform 2),52.5033421,-1.4725898,BEP,BERMPRK,,Europe/London,0,2,910GBERMPRK,0
9100BERMPRKBUS,Bermuda Park (Platform BUS),52.50143363291,-1.47217759826,BEP,BERMPRK,,Europe/London,0,BUS,910GBERMPRK,0
9100BERRYB1,Berry Brow (Platform 1),53.6210459,-1.7935857,BBW,BERRYB,,Europe/London,1,1,910GBERRYB,0
9100BERRYBBUS,Berry Brow (Platform BUS),53.62104070101,-1.7934320772,BBW,BERRYB,,Europe/London,1,BUS,910GBERRYB,0
9100BERWICK1,Berwick (Sussex) (Platform 1),50.8404862,0.1657244,BRK,BERWICK,,Europe/London,0,1,910GBERWICK,0
9100BERWICK2,Berwick (Sussex) (Platform 2),50.8404862,0.1657244,BRK,BERWICK,,Europe/London,0,2,910GBERWICK,0
9100BERWICKBUS,Berwick (Sussex) (Platform BUS),50.8404862,0.1657244,BRK,BERWICK,,Europe/London,0,BUS,910GBERWICK,0
9100BESCRLA1,Bescar Lane (Platform 1),53.6238457,-2.9145518,BES,BESCRLA,,Europe/London,0,1,910GBESCRLA,0
9100BESCRLA2,Bescar Lane (Platform 2),53.6238457,-2.9145518,BES,BESCRLA,,Europe/London,0,2,910GBESCRLA,0
9100BESJOHN1,Bedford St Johns (Platform 1),52.1293364,-0.4676146,BSJ,BESJOHN,,Europe/London,0,1,910GBESJOHN,0
9100BESTON1,Beeston (Platform 1),52.9207938,-1.2075065,BEE,BESTON,,Europe/London,0,1,910GBESTON,0
9100BESTON2,Beeston (Platform 2),52.9207938,-1.2075065,BEE,BESTON,,Europe/London,0,2,910GBESTON,0
9100BESTONBUS,Beeston (Platform BUS),52.9207938,-1.2075065,BEE,BESTON,,Europe/London,0,BUS,910GBESTON,0
9100BETSYCD1,Betws-y-Coed (Platform 1),53.092687,-3.800542,BYC,BETSYCD,,Europe/London,0,1,910GBETSYCD,0
9100BEVERLYBUS,Beverley (Platform BUS),53.84227350937,-0.42298004647,BEV,BEVERLY,,Europe/London,0,BUS,910GBEVERLY,0
9100BEXLEY1,Bexley (Platform 1),51.4402375,0.1479494,BXY,BEXLEY,,Europe/London,1,1,910GBEXLEY,0
9100BEXLEY2,Bexley (Platform 2),51.4402375,0.1479494,BXY,BEXLEY,,Europe/London,1,2,910GBEXLEY,0
9100BEXLEYBUS,Bexley (Platform BUS),51.4402375,0.1479494,BXY,BEXLEY,,Europe/London,1,BUS,910GBEXLEY,0
9100BGLAN1,Baglan (Platform 1),51.6143157,-3.8093646,BAJ,BGLAN,,Europe/London,0,1,910GBGLAN,0
9100BGLAN2,Baglan (Platform 2),51.6143157,-3.8093646,BAJ,BGLAN,,Europe/London,0,2,910GBGLAN,0
9100BGLANBUS,Baglan (Platform BUS),51.6143157,-3.8093646,BAJ,BGLAN,,Europe/London,0,BUS,910GBGLAN,0
9100BGOALAN1,Bridge of Allan (Platform 1),56.1567462,-3.9572856,BEA,BGOALAN,,Europe/London,0,1,910GBGOALAN,0
9100BGOALAN2,Bridge of Allan (Platform 2),56.1567462,-3.9572856,BEA,BGOALAN,,Europe/London,0,2,910GBGOALAN,0
9100BHAMINTBUS,Birmingham International (Platform BUS),52.4508239,-1.7253357,BHI,BHAMINT,,Europe/London,1,BUS,910GBHAMINT,0
9100BHAMINTTBC,Birmingham International (Platform TBC),52.45080697192,-1.72585666561,BHI,BHAMINT,,Europe/London,1,TBC,910GBHAMINT,0
9100BHAMNWSBUS,Birmingham New Street (Platform BUS),52.4776459,-1.898694,BHM,BHAMNWS,,Europe/London,1,BUS,910GBHAMNWS,0
9100BHAMNWSTBC,Birmingham New Street (Platform TBC),52.4776459,-1.898694,BHM,BHAMNWS,,Europe/London,1,TBC,910GBHAMNWS,0
9100BHILLPK1,Bush Hill Park (Platform 1),51.6417042,-0.0694005,BHK,BHILLPK,,Europe/London,0,1,910GBHILLPK,0
9100BHILLPK2,Bush Hill Park (Platform 2),51.6417042,-0.0694005,BHK,BHILLPK,,Europe/London,0,2,910GBHILLPK,0
9100BHILLPKBUS,Bush Hill Park (Platform BUS),51.6417042,-0.0694005,BHK,BHILLPK,,Europe/London,0,BUS,910GBHILLPK,0
9100BICKLEY1,Bickley (Platform 1),51.4000641,0.0443369,BKL,BICKLEY,,Europe/London,2,1,910GBICKLEY,0
9100BICKLEY2,Bickley (Platform 2),51.4000641,0.0443369,BKL,BICKLEY,,Europe/London,2,2,910GBICKLEY,0
9100BICKLEY3,Bickley (Platform 3),51.4000641,0.0443369,BKL,BICKLEY,,Europe/London,2,3,910GBICKLEY,0
9100BICKLEY4,Bickley (Platform 4),51.4000641,0.0443369,BKL,BICKLEY,,Europe/London,2,4,910GBICKLEY,0
9100BICKLEYBUS,Bickley (Platform BUS),51.4000641,0.0443369,BKL,BICKLEY,,Europe/London,2,BUS,910GBICKLEY,0
9100BIGLSWDBUS,Biggleswade (Platform BUS),52.0850343,-0.260819,BIW,BIGLSWD,,Europe/London,2,BUS,910GBIGLSWD,0
9100BILBROK1,Bilbrook (Platform 1),52.6239645,-2.1873052,BBK,BILBROK,,Europe/London,0,1,910GBILBROK,0
9100BILBROK2,Bilbrook (Platform 2),52.6239645,-2.1873052,BBK,BILBROK,,Europe/London,0,2,910GBILBROK,0
9100BILERCY1,Billericay (Platform 1),51.6288429,0.4181268,BIC,BILERCY,,Europe/London,1,1,910GBILERCY,0
9100BILERCY2,Billericay (Platform 2),51.6288429,0.4181268,BIC,BILERCY,,Europe/London,1,2,910GBILERCY,0
9100BILSHST1,Billingshurst (Platform 1),51.0150946,-0.4499027,BIG,BILSHST,,Europe/London,0,1,910GBILSHST,0
9100BILSHST2,Billingshurst (Platform 2),51.0150946,-0.4499027,BIG,BILSHST,,Europe/London,0,2,910GBILSHST,0
9100BINGHAM1,Bingham (Platform 1),52.9542194,-0.9512851,BIN,BINGHAM,,Europe/London,0,1,910GBINGHAM,0
9100BINGHAM2,Bingham (Platform 2),52.9542194,-0.9512851,BIN,BINGHAM,,Europe/London,0,2,910GBINGHAM,0
9100BIRCHWD1,Birchwood (Platform 1),53.4127822,-2.5251395,BWD,BIRCHWD,,Europe/London,0,1,910GBIRCHWD,0
9100BIRCHWD2,Birchwood (Platform 2),53.4127822,-2.5251395,BWD,BIRCHWD,,Europe/London,0,2,910GBIRCHWD,0
9100BIRCHWDBUS,Birchwood (Platform BUS),53.41271814401,-2.525307884,BWD,BIRCHWD,,Europe/London,0,BUS,910GBIRCHWD,0
9100BIRKBCK1,Birkbeck (Platform 1),51.4034563,-0.0565394,BIK,BIRKBCK,,Europe/London,2,1,910GBIRKBCK,0
9100BISHPTN1,Bishopton (Renfrewshire) (Platform 1),55.902096,-4.5004927,BPT,BISHPTN,,Europe/London,0,1,910GBISHPTN,0
9100BISHPTN2,Bishopton (Renfrewshire) (Platform 2),55.902096,-4.5004927,BPT,BISHPTN,,Europe/London,0,2,910GBISHPTN,0
9100BITERNE1,Bitterne (Platform 1),50.9181488,-1.3769392,BTE,BITERNE,,Europe/London,0,1,910GBITERNE,0
9100BITERNE2,Bitterne (Platform 2),50.9181488,-1.3769392,BTE,BITERNE,,Europe/London,0,2,910GBITERNE,0
9100BKDLEBUS,Birkdale (Platform BUS),53.6338886,-3.0146159,BDL,BKDLE,,Europe/London,1,BUS,910GBKDLE,0
9100BKHLS1,Brockholes (Platform 1),53.5970261,-1.7698266,BHS,BKHLS,,Europe/London,1,1,910GBKHLS,0
9100BKHLSBUS,Brockholes (Platform BUS),53.59697180598,-1.76969121826,BHS,BKHLS,,Europe/London,1,BUS,910GBKHLS,0
9100BKNELL1,Bucknell (Platform 1),52.3572768,-2.947694,BUK,BKNELL,,Europe/London,0,1,910GBKNELL,0
9100BKNELLBUS,Bucknell (Platform BUS),52.3572768,-2.947694,BUK,BKNELL,,Europe/London,0,BUS,910GBKNELL,0
9100BKNHRSTBUS,Brockenhurst (Platform BUS),50.81684095229,-1.57353100271,BCU,BKNHRST,,Europe/London,0,BUS,910GBKNHRST,0
9100BKSWELL1,Berkswell (Platform 1),52.3960838,-1.6417904,BKW,BKSWELL,,Europe/London,0,1,910GBKSWELL,0
9100BKSWELL2,Berkswell (Platform 2),52.3960838,-1.6417904,BKW,BKSWELL,,Europe/London,0,2,910GBKSWELL,0
9100BLAIRHL1,Blairhill (Platform 1),55.8665156,-4.0427186,BAI,BLAIRHL,,Europe/London,1,1,910GBLAIRHL,0
9100BLAIRHL2,Blairhill (Platform 2),55.8665156,-4.0427186,BAI,BLAIRHL,,Europe/London,1,2,910GBLAIRHL,0
9100BLAKEDN1,Blakedown (Platform 1),52.4064788,-2.1767711,BKD,BLAKEDN,,Europe/London,0,1,910GBLAKEDN,0
9100BLAKEDN2,Blakedown (Platform 2),52.4064788,-2.1767711,BKD,BLAKEDN,,Europe/London,0,2,910GBLAKEDN,0
9100BLANTYR1,Blantyre (Platform 1),55.7972578,-4.0868467,BLT,BLANTYR,,Europe/London,0,1,910GBLANTYR,0
9100BLANTYR2,Blantyre (Platform 2),55.7972578,-4.0868467,BLT,BLANTYR,,Europe/London,0,2,910GBLANTYR,0
9100BLAYDON1,Blaydon (Platform 1),54.9659633,-1.7128813,BLO,BLAYDON,,Europe/London,0,1,910GBLAYDON,0
9100BLAYDON2,Blaydon (Platform 2),54.9659633,-1.7128813,BLO,BLAYDON,,Europe/London,0,2,910GBLAYDON,0
9100BLAYDONBUS,Blaydon (Platform BUS),54.9659633,-1.7128813,BLO,BLAYDON,,Europe/London,0,BUS,910GBLAYDON,0
9100BLCKPLNBUS,Blackpool North (Platform BUS),53.8229372,-3.048373,BPN,BLCKPLN,,Europe/London,1,BUS,910GBLCKPLN,0
9100BLCKSBUS,Blackpool South (Platform BUS),53.79870074739,-3.04893781212,BPS,BLCKS,,Europe/London,1,BUS,910GBLCKS,0
9100BLEASBY1,Bleasby (Platform 1),53.0414796,-0.9435609,BSB,BLEASBY,,Europe/London,0,1,910GBLEASBY,0
9100BLEASBY2,Bleasby (Platform 2),53.0414796,-0.9435609,BSB,BLEASBY,,Europe/London,0,2,910GBLEASBY,0
9100BLEASBYBUS,Bleasby (Platform BUS),53.04136506073,-0.94368743637,BSB,BLEASBY,,Europe/London,0,BUS,910GBLEASBY,0
9100BLFRBUS,London Blackfriars (Platform BUS),51.5104871,-0.1032417,BFR,BLFR,,Europe/London,1,BUS,910GBLFR,0
9100BLIEURD1,Beaulieu Road (Platform 1),50.8550478,-1.5049707,BEU,BLIEURD,,Europe/London,0,1,910GBLIEURD,0
9100BLIEURD2,Beaulieu Road (Platform 2),50.8550478,-1.5049707,BEU,BLIEURD,,Europe/London,0,2,910GBLIEURD,0
9100BLKB7,Blackburn (Platform 7),53.74651607633,-2.47912205167,BBN,BLKB,,Europe/London,1,7,910GBLKB,0
9100BLKBBUS,Blackburn (Platform BUS),53.7463745,-2.4790853,BBN,BLKB,,Europe/London,1,BUS,910GBLKB,0
9100BLKHTHBUS,Blackheath (Platform BUS),51.46579624108,0.00887195566,BKH,BLKHTH,,Europe/London,0,BUS,910GBLKHTH,0
9100BLKRDGE1,Blackridge (Platform 1),55.8843985,-3.7502961,BKR,BLKRDGE,,Europe/London,1,1,910GBLKRDGE,0
9100BLKRDGE2,Blackridge (Platform 2),55.8843985,-3.7502961,BKR,BLKRDGE,,Europe/London,1,2,910GBLKRDGE,0
9100BLKST1,Blake Street (Platform 1),52.6043776,-1.8446597,BKT,BLKST,,Europe/London,0,1,910GBLKST,0
9100BLKST2,Blake Street (Platform 2),52.6043776,-1.8446597,BKT,BLKST,,Europe/London,0,2,910GBLKST,0
9100BLLVUE1,Belle Vue (Platform 1),53.4614732,-2.1800733,BLV,BLLVUE,,Europe/London,2,1,910GBLLVUE,0
9100BLLVUE2,Belle Vue (Platform 2),53.4614732,-2.1800733,BLV,BLLVUE,,Europe/London,2,2,910GBLLVUE,0
9100BLNGHMBUS,Billingham (Platform BUS),54.60560609915,-1.27971955308,BIL,BLNGHM,,Europe/London,2,BUS,910GBLNGHM,0
9100BLOXN1,Bloxwich North (Platform 1),52.6253158,-2.0175675,BWN,BLOXN,,Europe/London,0,1,910GBLOXN,0
9100BLOXN2,Bloxwich North (Platform 2),52.6253158,-2.0175675,BWN,BLOXN,,Europe/London,0,2,910GBLOXN,0
9100BLOXWCH1,Bloxwich (Platform 1),52.6184313,-2.0116594,BLX,BLOXWCH,,Europe/London,0,1,910GBLOXWCH,0
9100BLOXWCH2,Bloxwich (Platform 2),52.6184313,-2.0116594,BLX,BLOXWCH,,Europe/London,0,2,910GBLOXWCH,0
9100BLRD1,Blackrod (Platform 1),53.5912146,-2.5698672,BLK,BLRD,,Europe/London,0,1,910GBLRD,0
9100BLRD2,Blackrod (Platform 2),53.5912146,-2.5698672,BLK,BLRD,,Europe/London,0,2,910GBLRD,0
9100BLTCHLYBUS,Bletchley (Platform BUS),51.9954534,-0.7363,BLY,BLTCHLY,,Europe/London,0,BUS,910GBLTCHLY,0
9100BLTNODR1,Bolton-upon-Dearne (Platform 1),53.5188149,-1.3114857,BTD,BLTNODR,,Europe/London,0,1,910GBLTNODR,0
9100BLTNODR2,Bolton-upon-Dearne (Platform 2),53.5188149,-1.3114857,BTD,BLTNODR,,Europe/London,0,2,910GBLTNODR,0
9100BLTNODRBUS,Bolton-upon-Dearne (Platform BUS),53.5188149,-1.3114857,BTD,BLTNODR,,Europe/London,0,BUS,910GBLTNODR,0
9100BLTRNAB1,Beltring (Platform 1),51.2045463,0.4033747,BEG,BLTRNAB,,Europe/London,0,1,910GBLTRNAB,0
9100BLTRNAB2,Beltring (Platform 2),51.2045463,0.4033747,BEG,BLTRNAB,,Europe/London,0,2,910GBLTRNAB,0
9100BLTRNABBUS,Beltring (Platform BUS),51.20470872283,0.40349559627,BEG,BLTRNAB,,Europe/London,0,BUS,910GBLTRNAB,0
9100BLYBDGE1,Blythe Bridge (Platform 1),52.9678303,-2.066925,BYB,BLYBDGE,,Europe/London,0,1,910GBLYBDGE,0
9100BLYBDGE2,Blythe Bridge (Platform 2),52.9678303,-2.066925,BYB,BLYBDGE,,Europe/London,0,2,910GBLYBDGE,0
9100BLYBDGEBUS,Blythe Bridge (Platform BUS),52.96814226727,-2.06696110809,BYB,BLYBDGE,,Europe/London,0,BUS,910GBLYBDGE,0
9100BMBRBDGBUS,Bamber Bridge (Platform BUS),53.72686651197,-2.66077497771,BMB,BMBRBDG,,Europe/London,0,BUS,910GBMBRBDG,0
9100BMHL1,Bramhall (Platform 1),53.3601721,-2.1623117,BML,BMHL,,Europe/London,0,1,910GBMHL,0
9100BMHL2,Bramhall (Platform 2),53.3601721,-2.1623117,BML,BMHL,,Europe/London,0,2,910GBMHL,0
9100BMLY1,Bramley (Hampshire) (Platform 1),51.3299792,-1.0608367,BMY,BMLY,,Europe/London,0,1,910GBMLY,0
9100BMLY2,Bramley (Hampshire) (Platform 2),51.3299792,-1.0608367,BMY,BMLY,,Europe/London,0,2,910GBMLY,0
9100BMLYBUS,Bramley (Hampshire) (Platform BUS),51.33029324397,-1.06100267378,BMY,BMLY,,Europe/London,0,BUS,910GBMLY,0
9100BNBRBUS,Banbury (Platform BUS),52.06030818238,-1.32813275692,BAN,BNBR,,Europe/London,1,BUS,910GBNBR,0
9100BNDON1,Brandon (Platform 1),52.4538785,0.624439,BND,BNDON,,Europe/London,0,1,910GBNDON,0
9100BNDON2,Brandon (Platform 2),52.4538785,0.624439,BND,BNDON,,Europe/London,0,2,910GBNDON,0
9100BNHAMBUS,Burnham (Buckinghamshire) (Platform BUS),51.5233926,-0.6470844,BNM,BNHAM,,Europe/London,1,BUS,910GBNHAM,0
9100BNHL1,Barnhill (Platform 1),55.8777405,-4.2233317,BNL,BNHL,,Europe/London,0,1,910GBNHL,0
9100BNHL2,Barnhill (Platform 2),55.8777405,-4.2233317,BNL,BNHL,,Europe/London,0,2,910GBNHL,0
9100BNKHALLBUS,Bank Hall (Platform BUS),53.4378965,-2.9878045,BAH,BNKHALL,,Europe/London,2,BUS,910GBNKHALL,0
9100BNSBDGE1,Barnes Bridge (Platform 1),51.4720123,-0.2526332,BNI,BNSBDGE,,Europe/London,2,1,910GBNSBDGE,0
9100BNSBDGE2,Barnes Bridge (Platform 2),51.4720123,-0.2526332,BNI,BNSBDGE,,Europe/London,2,2,910GBNSBDGE,0
9100BNSBDGEBUS,Barnes Bridge (Platform BUS),51.47200852133,-0.25263015589,BNI,BNSBDGE,,Europe/London,2,BUS,910GBNSBDGE,0
9100BNSD1,Burneside (Cumbria) (Platform 1),54.3555182,-2.767351,BUD,BNSD,,Europe/London,0,1,910GBNSD,0
9100BNSLYBUS,Barnsley (Platform BUS),53.5543007868,-1.47716468299,BNY,BNSLY,,Europe/London,1,BUS,910GBNSLY,0
9100BNTBY1,Barnetby (Platform 1),53.57512099731,-0.40967962623,BTB,BNTBY,,Europe/London,1,1,910GBNTBY,0
9100BNTBYBUS,Barnetby (Platform BUS),53.57512099731,-0.40967962623,BTB,BNTBY,,Europe/London,1,BUS,910GBNTBY,0
9100BNTEYBUS,Bentley (Hampshire) (Platform BUS),51.18123308303,-0.86812680436,BTY,BNTEY,,Europe/London,0,BUS,910GBNTEY,0
9100BNTFORD1,Brentford (Platform 1),51.4876569,-0.3096825,BFD,BNTFORD,,Europe/London,1,1,910GBNTFORD,0
9100BNTFORD2,Brentford (Platform 2),51.4876569,-0.3096825,BFD,BNTFORD,,Europe/London,1,2,910GBNTFORD,0
9100BNTFORDBUS,Brentford (Platform BUS),51.48754690635,-0.30965091793,BFD,BNTFORD,,Europe/London,1,BUS,910GBNTFORD,0
9100BNTHAM1,Bentham (Platform 1),54.1154922,-2.5106193,BEN,BNTHAM,,Europe/London,0,1,910GBNTHAM,0
9100BNTHAM2,Bentham (Platform 2),54.1154922,-2.5106193,BEN,BNTHAM,,Europe/London,0,2,910GBNTHAM,0
9100BNTHAMBUS,Bentham (Platform BUS),54.11551727945,-2.51067615135,BEN,BNTHAM,,Europe/London,0,BUS,910GBNTHAM,0
9100BODORGN1,Bodorgan (Platform 1),53.2041893,-4.4162913,BOR,BODORGN,,Europe/London,0,1,910GBODORGN,0
9100BODORGN2,Bodorgan (Platform 2),53.2041893,-4.4162913,BOR,BODORGN,,Europe/London,0,2,910GBODORGN,0
9100BODORGNBUS,Bodorgan (Platform BUS),53.20430193864,-4.41800318822,BOR,BODORGN,,Europe/London,0,BUS,910GBODORGN,0
9100BOGSTON1,Bogston (Platform 1),55.9371847,-4.7122765,BGS,BOGSTON,,Europe/London,2,1,910GBOGSTON,0
9100BOGSTON2,Bogston (Platform 2),55.9371847,-4.7122765,BGS,BOGSTON,,Europe/London,2,2,910GBOGSTON,0
9100BOLTONBUS,Bolton (Platform BUS),53.57414325233,-2.42582463782,BON,BOLTON,,Europe/London,1,BUS,910GBOLTON,0
9100BOMOBUS,Bournemouth (Platform BUS),50.72727332144,-1.86450294675,BMH,BOMO,,Europe/London,0,BUS,910GBOMO,0
9100BOOKHAM1,Bookham (Platform 1),51.2888353,-0.3838753,BKA,BOOKHAM,,Europe/London,0,1,910GBOOKHAM,0
9100BOOKHAM2,Bookham (Platform 2),51.2888353,-0.3838753,BKA,BOOKHAM,,Europe/London,0,2,910GBOOKHAM,0
9100BOOKHAMBUS,Bookham (Platform BUS),51.28873865847,-0.38402060641,BKA,BOOKHAM,,Europe/London,0,BUS,910GBOOKHAM,0
9100BOOTLE1,Bootle (Cumbria) (Platform 1),54.2911815,-3.3938356,BOC,BOOTLE,,Europe/London,1,1,910GBOOTLE,0
9100BOOTLE2,Bootle (Cumbria) (Platform 2),54.2911815,-3.3938356,BOC,BOOTLE,,Europe/London,1,2,910GBOOTLE,0
9100BORNENDBUS,Bourne End (Platform BUS),51.57711790146,-0.71047346012,BNE,BORNEND,,Europe/London,0,BUS,910GBORNEND,0
9100BORTH1,Borth (Platform 1),52.4909831,-4.0496662,BRH,BORTH,,Europe/London,0,1,910GBORTH,0
9100BORTHBUS,Borth (Platform BUS),52.4909831,-4.0496662,BRH,BORTH,,Europe/London,0,BUS,910GBORTH,0
9100BORWGAW1,Borough Green & Wrotham (Platform 1),51.2931422,0.3061936,BRG,BORWGAW,,Europe/London,0,1,910GBORWGAW,0
9100BORWGAW2,Borough Green & Wrotham (Platform 2),51.2931422,0.3061936,BRG,BORWGAW,,Europe/London,0,2,910GBORWGAW,0
9100BORWGAWBUS,Borough Green & Wrotham (Platform BUS),51.2931422,0.3061936,BRG,BORWGAW,,Europe/London,0,BUS,910GBORWGAW,0
9100BOSHAM1,Bosham (Platform 1),50.8428556,-0.8471677,BOH,BOSHAM,,Europe/London,0,1,910GBOSHAM,0
9100BOSHAM2,Bosham (Platform 2),50.8428556,-0.8471677,BOH,BOSHAM,,Europe/London,0,2,910GBOSHAM,0
9100BOSTON1,Boston (Platform 1),52.978108,-0.0313195,BSN,BOSTON,,Europe/London,0,1,910GBOSTON,0
9100BOSTON2,Boston (Platform 2),52.978108,-0.0313195,BSN,BOSTON,,Europe/London,0,2,910GBOSTON,0
9100BOSTONBUS,Boston (Platform BUS),52.978108,-0.0313195,BSN,BOSTON,,Europe/London,0,BUS,910GBOSTON,0
9100BOTESFD1,Bottesford (Platform 1),52.9447732,-0.7951793,BTF,BOTESFD,,Europe/London,0,1,910GBOTESFD,0
9100BOTESFD2,Bottesford (Platform 2),52.9447732,-0.7951793,BTF,BOTESFD,,Europe/London,0,2,910GBOTESFD,0
9100BOTLEY1,Botley (Platform 1),50.9163612,-1.2590525,BOE,BOTLEY,,Europe/London,2,1,910GBOTLEY,0
9100BOTLEY2,Botley (Platform 2),50.9163612,-1.2590525,BOE,BOTLEY,,Europe/London,2,2,910GBOTLEY,0
9100BOTLEYBUS,Botley (Platform BUS),50.9163612,-1.2590525,BOE,BOTLEY,,Europe/London,2,BUS,910GBOTLEY,0
9100BOURNVL1,Bournville (Platform 1),52.4273889,-1.9266683,BRV,BOURNVL,,Europe/London,0,1,910GBOURNVL,0
9100BOURNVL2,Bournville (Platform 2),52.4273889,-1.9266683,BRV,BOURNVL,,Europe/London,0,2,910GBOURNVL,0
9100BOWBRKH1,Bow Brickhill (Platform 1),52.0042693,-0.6962178,BWB,BOWBRKH,,Europe/London,1,1,910GBOWBRKH,0
9100BOWBRKH2,Bow Brickhill (Platform 2),52.0042693,-0.6962178,BWB,BOWBRKH,,Europe/London,1,2,910GBOWBRKH,0
9100BOWESPK1,Bowes Park (Platform 1),51.6071861,-0.1204848,BOP,BOWESPK,,Europe/London,2,1,910GBOWESPK,0
9100BOWESPK2,Bowes Park (Platform 2),51.6071861,-0.1204848,BOP,BOWESPK,,Europe/London,2,2,910GBOWESPK,0
9100BOWESPKBUS,Bowes Park (Platform BUS),51.6071861,-0.1204848,BOP,BOWESPK,,Europe/London,2,BUS,910GBOWESPK,0
9100BOWLING1,Bowling (Platform 1),55.9310584,-4.4931921,BWG,BOWLING,,Europe/London,0,1,910GBOWLING,0
9100BOWLING2,Bowling (Platform 2),55.9310584,-4.4931921,BWG,BOWLING,,Europe/London,0,2,910GBOWLING,0
9100BOWLINGBUS,Bowling (Platform BUS),55.93107940601,-4.49384152578,BWG,BOWLING,,Europe/London,0,BUS,910GBOWLING,0
9100BOWSTRT1,Bow Street (Platform 1),52.4399137,-4.0303603,BOW,BOWSTRT,,Europe/London,1,1,910GBOWSTRT,0
9100BOWSTRTBUS,Bow Street (Platform BUS),52.4399137,-4.0303603,BOW,BOWSTRT,,Europe/London,1,BUS,910GBOWSTRT,0
9100BOXHAWH1,Box Hill & Westhumble (Platform 1),51.2539871,-0.3286723,BXW,BOXHAWH,,Europe/London,0,1,910GBOXHAWH,0
9100BOXHAWH2,Box Hill & Westhumble (Platform 2),51.2539871,-0.3286723,BXW,BOXHAWH,,Europe/London,0,2,910GBOXHAWH,0
9100BOXHAWHBUS,Box Hill & Westhumble (Platform BUS),51.25401185327,-0.32848987487,BXW,BOXHAWH,,Europe/London,0,BUS,910GBOXHAWH,0
9100BOXHBUS1,BOXHILL BURFD BR (Platform 1),51.25424948381872,-0.32335651364825324,BXX,BOXHBUS,,Europe/London,0,1,910GBOXHBUS,0
9100BRACKNLBUS,Bracknell (Platform BUS),51.41309188829,-0.75170356103,BCE,BRACKNL,,Europe/London,1,BUS,910GBRACKNL,0
9100BRADINBUS,Bradford Interchange (Platform BUS),53.790494,-1.7491251,BDI,BRADIN,,Europe/London,1,BUS,910GBRADIN,0
9100BRAINFP1,Braintree Freeport (Platform 1),51.8692939,0.5681965,BTP,BRAINFP,,Europe/London,1,1,910GBRAINFP,0
9100BRAINTR1,Braintree (Platform 1),51.8753105,0.5567303,BTR,BRAINTR,,Europe/London,1,1,910GBRAINTR,0
9100BRAINTRBUS,Braintree (Platform BUS),51.87539168378,0.55668710811,BTR,BRAINTR,,Europe/London,1,BUS,910GBRAINTR,0
9100BRAMPTN1,Brampton (Suffolk) (Platform 1),52.3955079,1.5438215,BRP,BRAMPTN,,Europe/London,0,1,910GBRAMPTN,0
9100BRBM1,Broadbottom (Platform 1),53.4408091,-2.0163275,BDB,BRBM,,Europe/London,0,1,910GBRBM,0
9100BRBM2,Broadbottom (Platform 2),53.4408091,-2.0163275,BDB,BRBM,,Europe/London,0,2,910GBRBM,0
9100BRBYBUS,Brondesbury (Platform BUS),51.5451656923,-0.20230865493,BSY,BRBY,,Europe/London,2,BUS,910GBRBY,0
9100BRDFDOA1,Bradford-on-Avon (Platform 1),51.344789,-2.2527549,BOA,BRDFDOA,,Europe/London,0,1,910GBRDFDOA,0
9100BRDFDOA2,Bradford-on-Avon (Platform 2),51.344789,-2.2527549,BOA,BRDFDOA,,Europe/London,0,2,910GBRDFDOA,0
9100BRDFDOABUS,Bradford-on-Avon (Platform BUS),51.344789,-2.2527549,BOA,BRDFDOA,,Europe/London,0,BUS,910GBRDFDOA,0
9100BRDGWTR1,Bridgwater (Platform 1),51.1278436,-2.9902484,BWT,BRDGWTR,,Europe/London,0,1,910GBRDGWTR,0
9100BRDGWTR2,Bridgwater (Platform 2),51.1278436,-2.9902484,BWT,BRDGWTR,,Europe/London,0,2,910GBRDGWTR,0
9100BRDGWTRBUS,Bridgwater (Platform BUS),51.1278436,-2.9902484,BWT,BRDGWTR,,Europe/London,0,BUS,910GBRDGWTR,0
9100BRDING1,Brading (Platform 1),50.6783048,-1.1386031,BDN,BRDING,,Europe/London,0,1,910GBRDING,0
9100BRDING2,Brading (Platform 2),50.6783048,-1.1386031,BDN,BRDING,,Europe/London,0,2,910GBRDING,0
9100BRDINGBUS,Brading (Platform BUS),50.67837192899,-1.13872233248,BDN,BRDING,,Europe/London,0,BUS,910GBRDING,0
9100BRDLNGTBUS,Bridlington (Platform BUS),54.08413126708,-0.1987203099,BDT,BRDLNGT,,Europe/London,1,BUS,910GBRDLNGT,0
9100BRDNML1,Bardon Mill (Platform 1),54.9745437,-2.3450711,BLL,BRDNML,,Europe/London,0,1,910GBRDNML,0
9100BRDNML2,Bardon Mill (Platform 2),54.9745437,-2.3450711,BLL,BRDNML,,Europe/London,0,2,910GBRDNML,0
9100BRDNMLBUS,Bardon Mill (Platform BUS),54.97449361588,-2.34650443635,BLL,BRDNML,,Europe/London,0,BUS,910GBRDNML,0
9100BRDS1,Bordesley (Platform 1),52.4722127,-1.877661,BBS,BRDS,,Europe/London,0,1,910GBRDS,0
9100BRDS2,Bordesley (Platform 2),52.4722127,-1.877661,BBS,BRDS,,Europe/London,0,2,910GBRDS,0
9100BREDBRY1,Bredbury (Platform 1),53.4230377,-2.1104918,BDY,BREDBRY,,Europe/London,2,1,910GBREDBRY,0
9100BREDBRY2,Bredbury (Platform 2),53.4230377,-2.1104918,BDY,BREDBRY,,Europe/London,2,2,910GBREDBRY,0
9100BREICH1,Breich (Platform 1),55.8274751,-3.6675876,BRC,BREICH,,Europe/London,0,1,910GBREICH,0
9100BREICH2,Breich (Platform 2),55.8274751,-3.6675876,BRC,BREICH,,Europe/London,0,2,910GBREICH,0
9100BRENTXBUS,Brent Cross West (Platform BUS),51.5688188,-0.2265437,BCZ,BRENTX,,Europe/London,1,BUS,910GBRENTX,0
9100BRFT1,Broomfleet (Platform 1),53.7403673,-0.6730092,BMF,BRFT,,Europe/London,0,1,910GBRFT,0
9100BRFT2,Broomfleet (Platform 2),53.7403673,-0.6730092,BMF,BRFT,,Europe/London,0,2,910GBRFT,0
9100BRFTBUS,Broomfleet (Platform BUS),53.74020822243,-0.67182831364,BMF,BRFT,,Europe/London,0,BUS,910GBRFT,0
9100BRGDDIE1,Bargeddie (Platform 1),55.8512996,-4.0737519,BGI,BRGDDIE,,Europe/London,0,1,910GBRGDDIE,0
9100BRGDDIE2,Bargeddie (Platform 2),55.8512996,-4.0737519,BGI,BRGDDIE,,Europe/London,0,2,910GBRGDDIE,0
9100BRGENDBUS,Bridgend (Platform BUS),51.5071098,-3.5752586,BGN,BRGEND,,Europe/London,1,BUS,910GBRGEND,0
9100BRGG1,Brigg (Platform 1),53.5490517,-0.4857584,BGG,BRGG,,Europe/London,0,1,910GBRGG,0
9100BRGG2,Brigg (Platform 2),53.5490517,-0.4857584,BGG,BRGG,,Europe/London,0,2,910GBRGG,0
9100BRGHBUS1,LONDON ROAD D R (Platform 1),50.8359623665124,-0.138135528984503,LRR,BRGHBUS,,Europe/London,0,1,910GBRGHBUS,0
9100BRGHLRD1,London Road (Brighton) (Platform 1),50.83681,-0.1362631,LRB,BRGHLRD,,Europe/London,0,1,910GBRGHLRD,0
9100BRGHLRD2,London Road (Brighton) (Platform 2),50.83681,-0.1362631,LRB,BRGHLRD,,Europe/London,0,2,910GBRGHLRD,0
9100BRGHTNBUS,Brighton (Platform BUS),50.8288602,-0.1407393,BTN,BRGHTN,,Europe/London,1,BUS,910GBRGHTN,0
9100BRHMBUS,Barnham (Platform BUS),50.8307449,-0.6402044,BAA,BRHM,,Europe/London,0,BUS,910GBRHM,0
9100BRHOUSEBUS,Brighouse (Platform BUS),53.69819729483,-1.77943883658,BGH,BRHOUSE,,Europe/London,0,BUS,910GBRHOUSE,0
9100BRIDGTN1,Bridgeton (Platform 1),55.8483262,-4.2248178,BDG,BRIDGTN,,Europe/London,2,1,910GBRIDGTN,0
9100BRIDGTN2,Bridgeton (Platform 2),55.8483262,-4.2248178,BDG,BRIDGTN,,Europe/London,2,2,910GBRIDGTN,0
9100BRIERFLBUS,Brierfield (Platform BUS),53.82398039818,-2.23648991236,BRF,BRIERFL,,Europe/London,1,BUS,910GBRIERFL,0
9100BRIMSDN1,Brimsdown (Platform 1),51.6555713,-0.0308093,BMD,BRIMSDN,,Europe/London,0,1,910GBRIMSDN,0
9100BRIMSDN2,Brimsdown (Platform 2),51.6555713,-0.0308093,BMD,BRIMSDN,,Europe/London,0,2,910GBRIMSDN,0
9100BRITFRY1,Briton Ferry (Platform 1),51.6381644,-3.8199507,BNF,BRITFRY,,Europe/London,0,1,910GBRITFRY,0
9100BRITFRY2,Briton Ferry (Platform 2),51.6381644,-3.8199507,BNF,BRITFRY,,Europe/London,0,2,910GBRITFRY,0
9100BRITFRYBUS,Briton Ferry (Platform BUS),51.6381644,-3.8199507,BNF,BRITFRY,,Europe/London,0,BUS,910GBRITFRY,0
9100BRITHDR1,Brithdir (Platform 1),51.7102669,-3.2282991,BHD,BRITHDR,,Europe/London,0,1,910GBRITHDR,0
9100BRITHDRBUS,Brithdir (Platform BUS),51.7102669,-3.2282991,BHD,BRITHDR,,Europe/London,0,BUS,910GBRITHDR,0
9100BRIXTON1,Brixton (Platform 1),51.4628953,-0.1133473,BRX,BRIXTON,,Europe/London,2,1,910GBRIXTON,0
9100BRIXTON2,Brixton (Platform 2),51.4628953,-0.1133473,BRX,BRIXTON,,Europe/London,2,2,910GBRIXTON,0
9100BRKMNPK1,Brookmans Park (Platform 1),51.7211572,-0.2048356,BPK,BRKMNPK,,Europe/London,2,1,910GBRKMNPK,0
9100BRKMNPK2,Brookmans Park (Platform 2),51.7211572,-0.2048356,BPK,BRKMNPK,,Europe/London,2,2,910GBRKMNPK,0
9100BRKMNPK3,Brookmans Park (Platform 3),51.7211572,-0.2048356,BPK,BRKMNPK,,Europe/London,2,3,910GBRKMNPK,0
9100BRKMNPK4,Brookmans Park (Platform 4),51.7211572,-0.2048356,BPK,BRKMNPK,,Europe/London,2,4,910GBRKMNPK,0
9100BRKMNPKBUS,Brookmans Park (Platform BUS),51.7211572,-0.2048356,BPK,BRKMNPK,,Europe/London,2,BUS,910GBRKMNPK,0
9100BRKNHDN1,Birkenhead North (Platform 1),53.404707,-3.0579268,BKN,BRKNHDN,,Europe/London,1,1,910GBRKNHDN,0
9100BRKWOOD1,Brookwood (Platform 1),51.3035819,-0.6359925,BKO,BRKWOOD,,Europe/London,0,1,910GBRKWOOD,0
9100BRKWOOD2,Brookwood (Platform 2),51.3035819,-0.6359925,BKO,BRKWOOD,,Europe/London,0,2,910GBRKWOOD,0
9100BRKWOODBUS,Brookwood (Platform BUS),51.30375792694,-0.63574781605,BKO,BRKWOOD,,Europe/London,0,BUS,910GBRKWOOD,0
9100BRLANDS1,Berrylands (Platform 1),51.3990081,-0.2809105,BRS,BRLANDS,,Europe/London,2,1,910GBRLANDS,0
9100BRLANDS2,Berrylands (Platform 2),51.3990081,-0.2809105,BRS,BRLANDS,,Europe/London,2,2,910GBRLANDS,0
9100BRLANDSBUS,Berrylands (Platform BUS),51.39904518396,-0.28071358953,BRS,BRLANDS,,Europe/London,2,BUS,910GBRLANDS,0
9100BRLEYPK1,Burley Park (Platform 1),53.8121567,-1.5779212,BUY,BRLEYPK,,Europe/London,0,1,910GBRLEYPK,0
9100BRLEYPK2,Burley Park (Platform 2),53.8121567,-1.5779212,BUY,BRLEYPK,,Europe/London,0,2,910GBRLEYPK,0
9100BRMCRSSBUS,Bromley Cross (Lancs) (Platform BUS),53.61404075006,-2.41089878029,BMC,BRMCRSS,,Europe/London,0,BUS,910GBRMCRSS,0
9100BRMLYSRBUS,Bramley (Platform BUS),53.80534873272,-1.63720617396,BLE,BRMLYSR,,Europe/London,0,BUS,910GBRMLYSR,0
9100BRMOUTHBUS,Barmouth (Platform BUS),52.7224212,-4.0567929,BRM,BRMOUTH,,Europe/London,0,BUS,910GBRMOUTH,0
9100BRMPTNC1,Brampton (Cumbria) (Platform 1),54.9321536,-2.7038502,BMP,BRMPTNC,,Europe/London,0,1,910GBRMPTNC,0
9100BRMPTNC2,Brampton (Cumbria) (Platform 2),54.9321536,-2.7038502,BMP,BRMPTNC,,Europe/London,0,2,910GBRMPTNC,0
9100BRMPTNCBUS,Brampton (Platform BUS),54.93239027981,-2.7029471921,BMP,BRMPTNC,,Europe/London,0,BUS,910GBRMPTNC,0
9100BRNCHTN1,Branchton (Platform 1),55.9405305,-4.8034053,BCN,BRNCHTN,,Europe/London,1,1,910GBRNCHTN,0
9100BRNGTN1,Brinnington (Platform 1),53.4319627,-2.1341235,BNT,BRNGTN,,Europe/London,2,1,910GBRNGTN,0
9100BRNGTN2,Brinnington (Platform 2),53.4319627,-2.1341235,BNT,BRNGTN,,Europe/London,2,2,910GBRNGTN,0
9100BRNHRST1,Barnehurst (Platform 1),51.4650212,0.1596467,BNH,BRNHRST,,Europe/London,0,1,910GBRNHRST,0
9100BRNHRST2,Barnehurst (Platform 2),51.4650212,0.1596467,BNH,BRNHRST,,Europe/London,0,2,910GBRNHRST,0
9100BRNHRSTBUS,Barnehurst (Platform BUS),51.46495912931,0.15964630799,BNH,BRNHRST,,Europe/London,0,BUS,910GBRNHRST,0
9100BRNMONC1,Burnham-on-Crouch (Platform 1),51.6336033,0.8136583,BUU,BRNMONC,,Europe/London,0,1,910GBRNMONC,0
9100BRNSTPL1,Barnstaple (Platform 1),51.0736094,-4.0630236,BNP,BRNSTPL,,Europe/London,1,1,910GBRNSTPL,0
9100BRNYARM1,Berney Arms (Platform 1),52.5902585,1.6310707,BYA,BRNYARM,,Europe/London,0,1,910GBRNYARM,0
9100BROADGR1,Broad Green (Platform 1),53.4065083,-2.8933889,BGE,BROADGR,,Europe/London,0,1,910GBROADGR,0
9100BROADGR2,Broad Green (Platform 2),53.4065083,-2.8933889,BGE,BROADGR,,Europe/London,0,2,910GBROADGR,0
9100BROMLYSBUS,Bromley South (Platform BUS),51.4000405,0.0182769,BMS,BROMLYS,,Europe/London,1,BUS,910GBROMLYS,0
9100BROOME1,Broome (Platform 1),52.4231523,-2.8844821,BME,BROOME,,Europe/London,0,1,910GBROOME,0
9100BROOMEBUS,Broome (Platform BUS),52.4231523,-2.8844821,BME,BROOME,,Europe/London,0,BUS,910GBROOME,0
9100BROUGHBUS,Brough (Platform BUS),53.7269328,-0.5781491,BUH,BROUGH,,Europe/London,1,BUS,910GBROUGH,0
9100BRSCGHBBUS,Burscough Bridge (Platform BUS),53.60525655804,-2.84087983477,BCB,BRSCGHB,,Europe/London,0,BUS,910GBRSCGHB,0
9100BRSCGHJ1,Burscough Junction (Platform 1),53.5975512,-2.8405323,BCJ,BRSCGHJ,,Europe/London,1,1,910GBRSCGHJ,0
9100BRSCGHJBUS,Burscough Junction (Platform BUS),53.59751935732,-2.8406052465,BCJ,BRSCGHJ,,Europe/London,1,BUS,910GBRSCGHJ,0
9100BRSDE1,Burnside (South Lanarkshire) (Platform 1),55.8169392,-4.2031241,BUI,BRSDE,,Europe/London,2,1,910GBRSDE,0
9100BRSDE2,Burnside (South Lanarkshire) (Platform 2),55.8169392,-4.2031241,BUI,BRSDE,,Europe/London,2,2,910GBRSDE,0
9100BRSR1,Broadstairs (Platform 1),51.360737,1.4334122,BSR,BRSR,,Europe/London,0,1,910GBRSR,0
9100BRSR2,Broadstairs (Platform 2),51.360737,1.4334122,BSR,BRSR,,Europe/London,0,2,910GBRSR,0
9100BRSRBUS,Broadstairs (Platform BUS),51.360737,1.4334122,BSR,BRSR,,Europe/London,0,BUS,910GBRSR,0
9100BRSTLTMBUS,Bristol Temple Meads (Platform BUS),51.4490991,-2.5804029,BRI,BRSTLTM,,Europe/London,1,BUS,910GBRSTLTM,0
9100BRSTPWYBUS,Bristol Parkway (Platform BUS),51.51380121061,-2.54216306394,BPW,BRSTPWY,,Europe/London,1,BUS,910GBRSTPWY,0
9100BRTHMBR1,Barton-on-Humber (Platform 1),53.6889938,-0.4430513,BAU,BRTHMBR,,Europe/London,1,1,910GBRTHMBR,0
9100BRTJYC1,Burton Joyce (Platform 1),52.9832944,-1.0412134,BUJ,BRTJYC,,Europe/London,0,1,910GBRTJYC,0
9100BRTJYC2,Burton Joyce (Platform 2),52.9832944,-1.0412134,BUJ,BRTJYC,,Europe/London,0,2,910GBRTJYC,0
9100BRTJYCBUS,Burton Joyce (Platform BUS),52.98344184034,-1.04087750627,BUJ,BRTJYC,,Europe/London,0,BUS,910GBRTJYC,0
9100BRUCGRV1,Bruce Grove (Platform 1),51.5937122,-0.070011,BCV,BRUCGRV,,Europe/London,2,1,910GBRUCGRV,0
9100BRUCGRV2,Bruce Grove (Platform 2),51.5937122,-0.070011,BCV,BRUCGRV,,Europe/London,2,2,910GBRUCGRV,0
9100BRUCGRVBUS,Bruce Grove (Platform BUS),51.5937122,-0.070011,BCV,BRUCGRV,,Europe/London,2,BUS,910GBRUCGRV,0
9100BRUNDAL1,Brundall (Platform 1),52.6196558,1.4386558,BDA,BRUNDAL,,Europe/London,0,1,910GBRUNDAL,0
9100BRUNDAL2,Brundall (Platform 2),52.6196558,1.4386558,BDA,BRUNDAL,,Europe/London,0,2,910GBRUNDAL,0
9100BRUNDALBUS,Brundall (Platform BUS),52.61948351405,1.43929896138,BDA,BRUNDAL,,Europe/London,0,BUS,910GBRUNDAL,0
9100BRUNDLG1,Brundall Gardens (Platform 1),52.6233603,1.4181588,BGA,BRUNDLG,,Europe/London,0,1,910GBRUNDLG,0
9100BRUNDLG2,Brundall Gardens (Platform 2),52.6233603,1.4181588,BGA,BRUNDLG,,Europe/London,0,2,910GBRUNDLG,0
9100BRUNDLGBUS,Brundall Gardens (Platform BUS),52.62344330976,1.41841639227,BGA,BRUNDLG,,Europe/London,0,BUS,910GBRUNDLG,0
9100BRUSTAN1,Brunstane (Platform 1),55.9420651,-3.1008498,BSU,BRUSTAN,,Europe/London,1,1,910GBRUSTAN,0
9100BRUTONBUS,Bruton (Platform BUS),51.1116892,-2.4471521,BRU,BRUTON,,Europe/London,0,BUS,910GBRUTON,0
9100BRWCKUTBUS,Berwick-upon-Tweed (Platform BUS),55.7745555,-2.0105423,BWK,BRWCKUT,,Europe/London,1,BUS,910GBRWCKUT,0
9100BRYN1,Bryn (Platform 1),53.4997249,-2.6476163,BYN,BRYN,,Europe/London,2,1,910GBRYN,0
9100BRYN2,Bryn (Platform 2),53.4997249,-2.6476163,BYN,BRYN,,Europe/London,2,2,910GBRYN,0
9100BRYNBUS,Bryn (Platform BUS),53.49986652918,-2.64721360036,BYN,BRYN,,Europe/London,2,BUS,910GBRYN,0
9100BSAUKLDBUS,Bishop Auckland (Platform BUS),54.6571952683,-1.6777149104,BIA,BSAUKLD,,Europe/London,1,BUS,910GBSAUKLD,0
9100BSCTSTA1,Bescot Stadium (Platform 1),52.5630075,-1.9909844,BSC,BSCTSTA,,Europe/London,0,1,910GBSCTSTA,0
9100BSCTSTA2,Bescot Stadium (Platform 2),52.5630075,-1.9909844,BSC,BSCTSTA,,Europe/London,0,2,910GBSCTSTA,0
9100BSDN1,Bearsden (Platform 1),55.917006,-4.3323696,BRN,BSDN,,Europe/London,0,1,910GBSDN,0
9100BSDN2,Bearsden (Platform 2),55.917006,-4.3323696,BRN,BSDN,,Europe/London,0,2,910GBSDN,0
9100BSDNBUS,Bearsden (Platform BUS),55.91712933401,-4.33202012839,BRN,BSDN,,Europe/London,0,BUS,910GBSDN,0
9100BSHB1,Bishopbriggs (Platform 1),55.9039659,-4.2244495,BBG,BSHB,,Europe/London,0,1,910GBSHB,0
9100BSHB2,Bishopbriggs (Platform 2),55.9039659,-4.2244495,BBG,BSHB,,Europe/London,0,2,910GBSHB,0
9100BSNGSTKBUS,Basingstoke (Platform BUS),51.2684238,-1.0885594,BSK,BSNGSTK,,Europe/London,0,BUS,910GBSNGSTK,0
9100BSSN1,Bishopstone (Sussex) (Platform 1),50.7799859,0.0826201,BIP,BSSN,,Europe/London,2,1,910GBSSN,0
9100BSSNBUS1,BISHOPSTONE HILL RISE (Platform 1),50.7818440706596,0.0838534489819998,BST,BSSNBUS,,Europe/London,0,1,910GBSSNBUS,0
9100BSTD1,Bearsted (Platform 1),51.2759153,0.577672,BSD,BSTD,,Europe/London,1,1,910GBSTD,0
9100BSTD2,Bearsted (Platform 2),51.2759153,0.577672,BSD,BSTD,,Europe/London,1,2,910GBSTD,0
9100BSTDBUS,Bearsted (Platform BUS),51.2759153,0.577672,BSD,BSTD,,Europe/London,1,BUS,910GBSTD,0
9100BSTEDMSBUS,Bury St Edmunds (Platform BUS),52.25376334229,0.71330680091,BSE,BSTEDMS,,Europe/London,1,BUS,910GBSTEDMS,0
9100BTCHWTH1,Betchworth (Platform 1),51.247941,-0.2674721,BTO,BTCHWTH,,Europe/London,0,1,910GBTCHWTH,0
9100BTCHWTH2,Betchworth (Platform 2),51.247941,-0.2674721,BTO,BTCHWTH,,Europe/London,0,2,910GBTCHWTH,0
9100BTCHWTHBUS,Betchworth (Platform BUS),51.24818920838,-0.26697293695,BTO,BTCHWTH,,Europe/London,0,BUS,910GBTCHWTH,0
9100BTHNLGRBUS,Bethnal Green (Platform BUS),51.5238872,-0.059592,BET,BTHNLGR,,Europe/London,2,BUS,910GBTHNLGR,0
9100BTLRSLA1,Butlers Lane (Platform 1),52.5925882,-1.8383384,BUL,BTLRSLA,,Europe/London,0,1,910GBTLRSLA,0
9100BTLRSLA2,Butlers Lane (Platform 2),52.5925882,-1.8383384,BUL,BTLRSLA,,Europe/London,0,2,910GBTLRSLA,0
9100BTLSBDG1,Battlesbridge (Platform 1),51.6249307,0.5656286,BLB,BTLSBDG,,Europe/London,1,1,910GBTLSBDG,0
9100BTRSBYBUS,Battersby (Platform BUS),54.45767999533,-1.09297174857,BTT,BTRSBY,,Europe/London,0,BUS,910GBTRSBY,0
9100BUCKNHM1,Buckenham (Platform 1),52.597696,1.4702099,BUC,BUCKNHM,,Europe/London,0,1,910GBUCKNHM,0
9100BUCKNHM2,Buckenham (Platform 2),52.597696,1.4702099,BUC,BUCKNHM,,Europe/London,0,2,910GBUCKNHM,0
9100BUGLENEW,Bugle (Platform NEW),50.4002418,-4.7919145,BGL,BUGLE,,Europe/London,0,NEW,910GBUGLE,0
9100BUGLEPAR,Bugle (Platform PAR),50.4002418,-4.7919145,BGL,BUGLE,,Europe/London,0,PAR,910GBUGLE,0
9100BUILTHR1,Builth Road (Platform 1),52.1691098,-3.4271436,BHR,BUILTHR,,Europe/London,0,1,910GBUILTHR,0
9100BUILTHRBUS,Builth Road (Platform BUS),52.16932219374,-3.42703258703,BHR,BUILTHR,,Europe/London,1,BUS,910GBUILTHR,0
9100BULWELL1,Bulwell (Platform 1),52.9993437,-1.1953957,BLW,BULWELL,,Europe/London,0,1,910GBULWELL,0
9100BULWELLBUS,Bulwell (Platform BUS),52.99969548849,-1.19623043989,BLW,BULWELL,,Europe/London,0,BUS,910GBULWELL,0
9100BURES1,Bures (Platform 1),51.9712052,0.7691268,BUE,BURES,,Europe/London,0,1,910GBURES,0
9100BURGESHBUS,Burgess Hill (Platform BUS),50.9536081,-0.1274304,BUG,BURGESH,,Europe/London,0,BUS,910GBURGESH,0
9100BURNLYBBUS,Burnley Barracks (Platform BUS),53.79087809011,-2.25808570994,BUB,BURNLYB,,Europe/London,1,BUS,910GBURNLYB,0
9100BURNLYCBUS,Burnley Central (Platform BUS),53.79351214201,-2.24497101878,BNC,BURNLYC,,Europe/London,1,BUS,910GBURNLYC,0
9100BURNMRBUS,Burnley Manchester Road (Platform BUS),53.78496551788,-2.24886723007,BYM,BURNMR,,Europe/London,0,BUS,910GBURNMR,0
9100BURSLDN1,Bursledon (Platform 1),50.8835729,-1.305111,BUO,BURSLDN,,Europe/London,0,1,910GBURSLDN,0
9100BURSLDN2,Bursledon (Platform 2),50.8835729,-1.305111,BUO,BURSLDN,,Europe/London,0,2,910GBURSLDN,0
9100BURTNOTBUS,Burton-on-Trent (Platform BUS),52.80581549715,-1.64245979101,BUT,BURTNOT,,Europe/London,0,BUS,910GBURTNOT,0
9100BUSBY1,Busby (Platform 1),55.7803927,-4.2622278,BUS,BUSBY,,Europe/London,0,1,910GBUSBY,0
9100BUSBY2,Busby (Platform 2),55.7803927,-4.2622278,BUS,BUSBY,,Europe/London,0,2,910GBUSBY,0
9100BUSHEY2,Bushey (Platform 2),51.64558157546,-0.38474907806,BSH,BUSHEY,,Europe/London,2,2,910GBUSHEY,0
9100BUSHEY3,Bushey (Platform 3),51.6454831,-0.3849194,BSH,BUSHEY,,Europe/London,2,3,910GBUSHEY,0
9100BUSHEY4,Bushey (Platform 4),51.6454831,-0.3849194,BSH,BUSHEY,,Europe/London,2,4,910GBUSHEY,0
9100BUSHYDCBUS,Bushey (Platform BUS),51.6454831,-0.3849194,BSH,BUSHYDC,,Europe/London,2,BUS,910GBUSHEY,0
9100BUXTONBUS,Buxton (Platform BUS),53.2607212488,-1.91286336282,BUX,BUXTON,,Europe/London,1,BUS,910GBUXTON,0
9100BXLYHTH1,Bexleyheath (Platform 1),51.4635649,0.1329448,BXH,BXLYHTH,,Europe/London,1,1,910GBXLYHTH,0
9100BXLYHTH2,Bexleyheath (Platform 2),51.4635649,0.1329448,BXH,BXLYHTH,,Europe/London,1,2,910GBXLYHTH,0
9100BXLYHTHBUS,Bexleyheath (Platform BUS),51.4635001507,0.13373496165,BXH,BXLYHTH,,Europe/London,1,BUS,910GBXLYHTH,0
9100BXTD1,Buxted (Platform 1),50.9901183,0.1313783,BXD,BXTD,,Europe/London,1,1,910GBXTD,0
9100BXTDBUS,Buxted (Platform BUS),50.9901183,0.1313783,BXD,BXTD,,Europe/London,1,BUS,910GBXTD,0
9100BYFLANH1,Byfleet & New Haw (Platform 1),51.3496809,-0.48122,BFN,BYFLANH,,Europe/London,2,1,910GBYFLANH,0
9100BYFLANH2,Byfleet & New Haw (Platform 2),51.3496809,-0.48122,BFN,BYFLANH,,Europe/London,2,2,910GBYFLANH,0
9100BYFLANHBUS,Byfleet & New Haw (Platform BUS),51.34979664729,-0.48138968791,BFN,BYFLANH,,Europe/London,2,BUS,910GBYFLANH,0
9100BYFLANHDFL,Byfleet & New Haw (Platform DFL),51.34979664729,-0.48138968791,BFN,BYFLANH,,Europe/London,2,DFL,910GBYFLANH,0
9100BYFLANHUFL,Byfleet & New Haw (Platform UFL),51.34979664729,-0.48138968791,BFN,BYFLANH,,Europe/London,2,UFL,910GBYFLANH,0
9100BYNEA1,Bynea (Platform 1),51.6722799,-4.0987158,BYE,BYNEA,,Europe/London,0,1,910GBYNEA,0
9100BYNEA2,Bynea (Platform 2),51.6722799,-4.0987158,BYE,BYNEA,,Europe/London,0,2,910GBYNEA,0
9100BYNEABUS,Bynea (Platform BUS),51.67203170195,-4.09888073461,BYE,BYNEA,,Europe/London,0,BUS,910GBYNEA,0
9100CADOXTN1,Cadoxton (Platform 1),51.4122147,-3.2486814,CAD,CADOXTN,,Europe/London,1,1,910GCADOXTN,0
9100CADOXTN2,Cadoxton (Platform 2),51.4122147,-3.2486814,CAD,CADOXTN,,Europe/London,1,2,910GCADOXTN,0
9100CAERGWL1,Caergwrle (Platform 1),53.1080896,-3.0332375,CGW,CAERGWL,,Europe/London,0,1,910GCAERGWL,0
9100CAERGWL2,Caergwrle (Platform 2),53.1080896,-3.0332375,CGW,CAERGWL,,Europe/London,0,2,910GCAERGWL,0
9100CAERGWLBUS,Caergwrle (Platform BUS),53.10786315263,-3.03291276566,CGW,CAERGWL,,Europe/London,0,BUS,910GCAERGWL,0
9100CALSTCK1,Calstock (Platform 1),50.497994,-4.208583,CSK,CALSTCK,,Europe/London,0,1,910GCALSTCK,0
9100CALSTCKBUS,Calstock (Platform BUS),50.49779718872,-4.20898753744,CSK,CALSTCK,,Europe/London,0,BUS,910GCALSTCK,0
9100CAMBDGE1A,Cambridge (Platform 1A),52.194144,0.1375027,CBG,CAMBDGE,,Europe/London,1,1A,910GCAMBDGE,0
9100CAMBDGEBUS,Cambridge (Platform BUS),52.19406726687,0.13745655272,CBG,CAMBDGE,,Europe/London,1,BUS,910GCAMBDGE,0
9100CAMBNTHBUS,Cambridge North (Platform BUS),52.22448192767,0.15847881449,CMB,CAMBNTH,,Europe/London,1,BUS,910GCAMBNTH,0
9100CAMHTH1,Cambridge Heath (Platform 1),51.5319544,-0.0574215,CBH,CAMHTH,,Europe/London,2,1,910GCAMHTH,0
9100CAMHTH2,Cambridge Heath (Platform 2),51.5319544,-0.0574215,CBH,CAMHTH,,Europe/London,2,2,910GCAMHTH,0
9100CAMHTHBUS,Cambridge Heath (Platform BUS),51.5319544,-0.0574215,CBH,CAMHTH,,Europe/London,2,BUS,910GCAMHTH,0
9100CANLEY1,Canley (Platform 1),52.3993806,-1.5475333,CNL,CANLEY,,Europe/London,0,1,910GCANLEY,0
9100CANLEY2,Canley (Platform 2),52.3993806,-1.5475333,CNL,CANLEY,,Europe/London,0,2,910GCANLEY,0
9100CARBISB1,Carbis Bay (Platform 1),50.1970953,-5.4637047,CBB,CARBISB,,Europe/London,0,1,910GCARBISB,0
9100CARDFBR1,Cardiff Bay (Platform 1),51.4673505,-3.1666863,CDB,CARDFBR,,Europe/London,0,1,910GCARDFBR,0
9100CARDFQSBUS,Cardiff Queen Street (Platform BUS),51.4820022,-3.1702926,CDQ,CARDFQS,,Europe/London,0,BUS,910GCARDFQS,0
9100CARFIN1,Carfin (Platform 1),55.8076345,-3.9557056,CRF,CARFIN,,Europe/London,0,1,910GCARFIN,0
9100CARFIN2,Carfin (Platform 2),55.8076345,-3.9557056,CRF,CARFIN,,Europe/London,0,2,910GCARFIN,0
9100CARLILEBUS,Carlisle (Platform BUS),54.89065183693,-2.93319163297,CAR,CARLILE,,Europe/London,1,BUS,910GCARLILE,0
9100CARLILETBC,Carlisle (Platform TBC),54.89065183693,-2.93319163297,CAR,CARLILE,,Europe/London,1,TBC,910GCARLILE,0
9100CARMYLE1,Carmyle (Platform 1),55.8342637,-4.1580726,CML,CARMYLE,,Europe/London,0,1,910GCARMYLE,0
9100CARMYLE2,Carmyle (Platform 2),55.8342637,-4.1580726,CML,CARMYLE,,Europe/London,0,2,910GCARMYLE,0
9100CARSWS1,Caersws (Platform 1),52.5161538,-3.4325855,CWS,CARSWS,,Europe/London,0,1,910GCARSWS,0
9100CARSWSBUS,Caersws (Platform BUS),52.5161240085,-3.43249814791,CWS,CARSWS,,Europe/London,0,BUS,910GCARSWS,0
9100CASTLFDBUS,Castleford (Platform BUS),53.72407721634,-1.35465259492,CFD,CASTLFD,,Europe/London,1,BUS,910GCASTLFD,0
9100CATERHMBUS,Caterham (Platform BUS),51.28214149381,-0.07830704056,CAT,CATERHM,,Europe/London,0,BUS,910GCATERHM,0
9100CATFBDG1,Catford Bridge (Platform 1),51.4445909,-0.0249226,CFB,CATFBDG,,Europe/London,0,1,910GCATFBDG,0
9100CATFBDG2,Catford Bridge (Platform 2),51.4445909,-0.0249226,CFB,CATFBDG,,Europe/London,0,2,910GCATFBDG,0
9100CATFORD1,Catford (Platform 1),51.4444696,-0.0261521,CTF,CATFORD,,Europe/London,1,1,910GCATFORD,0
9100CATFORD2,Catford (Platform 2),51.4444696,-0.0261521,CTF,CATFORD,,Europe/London,1,2,910GCATFORD,0
9100CATHAYS1,Cathays (Platform 1),51.4888964,-3.1789269,CYS,CATHAYS,,Europe/London,0,1,910GCATHAYS,0
9100CATHAYS2,Cathays (Platform 2),51.4888964,-3.1789269,CYS,CATHAYS,,Europe/London,0,2,910GCATHAYS,0
9100CAUSLNDLIS,Causeland (Platform LIS),50.4056895,-4.4664151,CAU,CAUSLND,,Europe/London,0,LIS,910GCAUSLND,0
9100CAUSLNDLOO,Causeland (Platform LOO),50.4056895,-4.4664151,CAU,CAUSLND,,Europe/London,0,LOO,910GCAUSLND,0
9100CBARPAR1,Castle Bar Park (Platform 1),51.5228669,-0.3315024,CBP,CBARPAR,,Europe/London,0,1,910GCBARPAR,0
9100CBARPAR2,Castle Bar Park (Platform 2),51.5228669,-0.3315024,CBP,CBARPAR,,Europe/London,0,2,910GCBARPAR,0
9100CBAY1,Colwyn Bay (Platform 1),53.2968237,-3.7258927,CWB,CBAY,,Europe/London,1,1,910GCBAY,0
9100CBAY2,Colwyn Bay (Platform 2),53.2968237,-3.7258927,CWB,CBAY,,Europe/London,1,2,910GCBAY,0
9100CBAYBUS,Colwyn Bay (Platform BUS),53.29635884135,-3.72541657289,CWB,CBAY,,Europe/London,1,BUS,910GCBAY,0
9100CBGH1,Crowborough (Platform 1),51.0462372,0.1880389,COH,CBGH,,Europe/London,1,1,910GCBGH,0
9100CBGH2,Crowborough (Platform 2),51.0462372,0.1880389,COH,CBGH,,Europe/London,1,2,910GCBGH,0
9100CBGHBUS,Crowborough (Platform BUS),51.0462372,0.1880389,COH,CBGH,,Europe/London,1,BUS,910GCBGH,0
9100CBHMSDA1,Cobham & Stoke d'Abernon (Platform 1),51.3179185,-0.3894128,CSD,CBHMSDA,,Europe/London,0,1,910GCBHMSDA,0
9100CBHMSDA2,Cobham & Stoke d'Abernon (Platform 2),51.3179185,-0.3894128,CSD,CBHMSDA,,Europe/London,0,2,910GCBHMSDA,0
9100CBHMSDABUS,Cobham & Stoke d'Abernon (Platform BUS),51.31810073777,-0.38934629501,CSD,CBHMSDA,,Europe/London,0,BUS,910GCBHMSDA,0
9100CBRK1,Cranbrook (Devon) (Platform 1),50.7500196,-3.4209803,CBK,CBRK,,Europe/London,1,1,910GCBRK,0
9100CCARYBUS,Castle Cary (Platform BUS),51.099857,-2.5224232,CLC,CCARY,,Europe/London,0,BUS,910GCCARY,0
9100CCRT1,Cathcart (Platform 1),55.8177954,-4.2603903,CCT,CCRT,,Europe/London,2,1,910GCCRT,0
9100CCRT2,Cathcart (Platform 2),55.8177954,-4.2603903,CCT,CCRT,,Europe/London,2,2,910GCCRT,0
9100CDCOT1,Caldicot (Platform 1),51.5845063,-2.7597685,CDT,CDCOT,,Europe/London,0,1,910GCDCOT,0
9100CDCOT2,Caldicot (Platform 2),51.5845063,-2.7597685,CDT,CDCOT,,Europe/London,0,2,910GCDCOT,0
9100CDCOTBUS,Caldicot (Platform BUS),51.5845063,-2.7597685,CDT,CDCOT,,Europe/London,0,BUS,910GCDCOT,0
9100CDRS1,Cardross (Platform 1),55.9603526,-4.6532942,CDR,CDRS,,Europe/London,0,1,910GCDRS,0
9100CDRS2,Cardross (Platform 2),55.9603526,-4.6532942,CDR,CDRS,,Europe/London,0,2,910GCDRS,0
9100CDRSBUS,Cardross (Platform BUS),55.96037865007,-4.65307320297,CDR,CDRS,,Europe/London,0,BUS,910GCDRS,0
9100CEFNYBD1,Cefn-y-Bedd (Platform 1),53.0988378,-3.0308499,CYB,CEFNYBD,,Europe/London,0,1,910GCEFNYBD,0
9100CEFNYBD2,Cefn-y-Bedd (Platform 2),53.0988378,-3.0308499,CYB,CEFNYBD,,Europe/London,0,2,910GCEFNYBD,0
9100CEFNYBDBUS,Cefn-y-Bedd (Platform BUS),53.09879997593,-3.03105272941,CYB,CEFNYBD,,Europe/London,0,BUS,910GCEFNYBD,0
9100CFFT1,Croftfoot (Platform 1),55.818309,-4.2283132,CFF,CFFT,,Europe/London,2,1,910GCFFT,0
9100CFFT2,Croftfoot (Platform 2),55.818309,-4.2283132,CFF,CFFT,,Europe/London,2,2,910GCFFT,0
9100CFPK1,Crofton Park (Platform 1),51.4552149,-0.0366299,CFT,CFPK,,Europe/London,0,1,910GCFPK,0
9100CFPK2,Crofton Park (Platform 2),51.4552149,-0.0366299,CFT,CFPK,,Europe/London,0,2,910GCFPK,0
9100CHAPLTN1,Chapelton (Devon) (Platform 1),51.016229,-4.0245509,CPN,CHAPLTN,,Europe/London,0,1,910GCHAPLTN,0
9100CHAPLTNBAR,Chapelton (Devon) (Platform BAR),51.016229,-4.0245509,CPN,CHAPLTN,,Europe/London,0,BAR,910GCHAPLTN,0
9100CHAPLTNEXE,Chapelton (Devon) (Platform EXE),51.016229,-4.0245509,CPN,CHAPLTN,,Europe/London,0,EXE,910GCHAPLTN,0
9100CHARTHM1,Chartham (Platform 1),51.2571747,1.0179051,CRT,CHARTHM,,Europe/London,0,1,910GCHARTHM,0
9100CHARTHM2,Chartham (Platform 2),51.2571747,1.0179051,CRT,CHARTHM,,Europe/London,0,2,910GCHARTHM,0
9100CHARTHMBUS,Chartham (Platform BUS),51.2571747,1.0179051,CRT,CHARTHM,,Europe/London,0,BUS,910GCHARTHM,0
9100CHASNRD1,Chassen Road (Platform 1),53.4461647,-2.3678327,CSR,CHASNRD,,Europe/London,0,1,910GCHASNRD,0
9100CHASNRD2,Chassen Road (Platform 2),53.4461647,-2.3678327,CSR,CHASNRD,,Europe/London,0,2,910GCHASNRD,0
9100CHASNRDBUS,Chassen Road (Platform BUS),53.44615929591,-2.36823287186,CSR,CHASNRD,,Europe/London,0,BUS,910GCHASNRD,0
9100CHATHAMBUS,Chatham (Platform BUS),51.3803092,0.5212081,CTM,CHATHAM,,Europe/London,1,BUS,910GCHATHAM,0
9100CHBURY1,Charlbury (Platform 1),51.8723271,-1.4897686,CBY,CHBURY,,Europe/London,1,1,910GCHBURY,0
9100CHBURY2,Charlbury (Platform 2),51.8723271,-1.4897686,CBY,CHBURY,,Europe/London,1,2,910GCHBURY,0
9100CHBURYBUS,Charlbury (Platform BUS),51.8723271,-1.4897686,CBY,CHBURY,,Europe/London,1,BUS,910GCHBURY,0
9100CHCHSTRBUS,Chichester (Platform BUS),50.8318805,-0.781845,CCH,CHCHSTR,,Europe/London,1,BUS,910GCHCHSTR,0
9100CHDNGTN1,Cheddington (Platform 1),51.8582898,-0.6619813,CED,CHDNGTN,,Europe/London,0,1,910GCHDNGTN,0
9100CHDNGTN2,Cheddington (Platform 2),51.85791824384,-0.66215178661,CED,CHDNGTN,,Europe/London,0,2,910GCHDNGTN,0
9100CHDNGTN3,Cheddington (Platform 3),51.8582898,-0.6619813,CED,CHDNGTN,,Europe/London,0,3,910GCHDNGTN,0
9100CHDNGTN4,Cheddington (Platform 4),51.8582898,-0.6619813,CED,CHDNGTN,,Europe/London,0,4,910GCHDNGTN,0
9100CHDNGTN6,Cheddington (Platform 6),51.85791824384,-0.66215178661,CED,CHDNGTN,,Europe/London,0,6,910GCHDNGTN,0
9100CHEAM1,Cheam (Platform 1),51.3556609,-0.2145128,CHE,CHEAM,,Europe/London,0,1,910GCHEAM,0
9100CHEAM2,Cheam (Platform 2),51.3556609,-0.2145128,CHE,CHEAM,,Europe/London,0,2,910GCHEAM,0
9100CHEAMBUS,Cheam (Platform BUS),51.3556609,-0.2145128,CHE,CHEAM,,Europe/London,0,BUS,910GCHEAM,0
9100CHEFBUS,Chapel-en-le-Frith (Platform BUS),53.31223083,-1.91876237999,CEF,CHEF,,Europe/London,0,BUS,910GCHEF,0
9100CHELFD1,Chelford (Cheshire) (Platform 1),53.2704221,-2.2804386,CEL,CHELFD,,Europe/London,0,1,910GCHELFD,0
9100CHELFD2,Chelford (Cheshire) (Platform 2),53.2704221,-2.2804386,CEL,CHELFD,,Europe/London,0,2,910GCHELFD,0
9100CHEPSTW1,Chepstow (Platform 1),51.6399688,-2.6710867,CPW,CHEPSTW,,Europe/London,0,1,910GCHEPSTW,0
9100CHEPSTW2,Chepstow (Platform 2),51.6399688,-2.6710867,CPW,CHEPSTW,,Europe/London,0,2,910GCHEPSTW,0
9100CHEPSTWBUS,Chepstow (Platform BUS),51.6399688,-2.6710867,CPW,CHEPSTW,,Europe/London,0,BUS,910GCHEPSTW,0
9100CHESHNT3,Cheshunt (Platform 3),51.7027036,-0.0238695,CHN,CHESHNT,,Europe/London,0,3,910GCHESHNT,0
9100CHETNOL1,Chetnole (Platform 1),50.866344,-2.5729619,CNO,CHETNOL,,Europe/London,2,1,910GCHETNOL,0
9100CHETNOLBUS,Chetnole (Platform BUS),50.866344,-2.5729619,CNO,CHETNOL,,Europe/London,2,BUS,910GCHETNOL,0
9100CHETNOLDOR,Chetnole (Platform DOR),50.866344,-2.5729619,CNO,CHETNOL,,Europe/London,2,DOR,910GCHETNOL,0
9100CHETNOLYEO,Chetnole (Platform YEO),50.866344,-2.5729619,CNO,CHETNOL,,Europe/London,2,YEO,910GCHETNOL,0
9100CHFDBUS,Chesterfield (Platform BUS),53.2382236,-1.4197283,CHD,CHFD,,Europe/London,1,BUS,910GCHFD,0
9100CHFNBUS,Church Fenton (Platform BUS),53.8270101,-1.2272134,CHF,CHFN,,Europe/London,2,BUS,910GCHFN,0
9100CHINGFDBUS,Chingford (Platform BUS),51.63308667195,0.00989712465,CHI,CHINGFD,,Europe/London,1,BUS,910GCHINGFD,0
9100CHIPNHMBUS,Chippenham (Platform BUS),51.46248796305,-2.11539388746,CPM,CHIPNHM,,Europe/London,1,BUS,910GCHIPNHM,0
9100CHIRK1,Chirk (Platform 1),52.9332472,-3.06615,CRK,CHIRK,,Europe/London,0,1,910GCHIRK,0
9100CHIRK2,Chirk (Platform 2),52.9332472,-3.06615,CRK,CHIRK,,Europe/London,0,2,910GCHIRK,0
9100CHIRKBUS,Chirk (Platform BUS),52.93308718045,-3.06564310726,CRK,CHIRK,,Europe/London,0,BUS,910GCHIRK,0
9100CHISWCK1,Chiswick (Platform 1),51.4811465,-0.2681753,CHK,CHISWCK,,Europe/London,0,1,910GCHISWCK,0
9100CHISWCK2,Chiswick (Platform 2),51.4811465,-0.2681753,CHK,CHISWCK,,Europe/London,0,2,910GCHISWCK,0
9100CHISWCKBUS,Chiswick (Platform BUS),51.4811366163,-0.26783512786,CHK,CHISWCK,,Europe/London,0,BUS,910GCHISWCK,0
9100CHLFNAL1,Chalfont & Latimer (Platform 1),51.6681019,-0.5611671,CFO,CHLFNAL,,Europe/London,1,1,910GCHLFNAL,0
9100CHLFNAL2,Chalfont & Latimer (Platform 2),51.6681019,-0.5611671,CFO,CHLFNAL,,Europe/London,1,2,910GCHLFNAL,0
9100CHLKWEL1,Chalkwell (Platform 1),51.5386117,0.6698419,CHW,CHLKWEL,,Europe/London,2,1,910GCHLKWEL,0
9100CHLKWEL2,Chalkwell (Platform 2),51.5386117,0.6698419,CHW,CHLKWEL,,Europe/London,2,2,910GCHLKWEL,0
9100CHLKWELBUS,Chalkwell (Platform BUS),51.5386117,0.6698419,CHW,CHLKWEL,,Europe/London,2,BUS,910GCHLKWEL,0
9100CHLSFLD1,Chelsfield (Platform 1),51.3566115,0.1083284,CLD,CHLSFLD,,Europe/London,0,1,910GCHLSFLD,0
9100CHLSFLD2,Chelsfield (Platform 2),51.3566115,0.1083284,CLD,CHLSFLD,,Europe/London,0,2,910GCHLSFLD,0
9100CHLTNHMBUS,Cheltenham Spa (Platform BUS),51.8969882,-2.1001222,CNM,CHLTNHM,,Europe/London,0,BUS,910GCHLTNHM,0
9100CHLWTH1,Chilworth (Platform 1),51.2151195,-0.5250129,CHL,CHLWTH,,Europe/London,0,1,910GCHLWTH,0
9100CHLWTH2,Chilworth (Platform 2),51.2151195,-0.5250129,CHL,CHLWTH,,Europe/London,0,2,910GCHLWTH,0
9100CHLWTHBUS,Chilworth (Platform BUS),51.21521316874,-0.52482405674,CHL,CHLWTH,,Europe/London,0,BUS,910GCHLWTH,0
9100CHNLYBUS,Chinley (Platform BUS),53.34028991088,-1.94394071845,CLY,CHNLY,,Europe/London,2,BUS,910GCHNLY,0
9100CHOLSEY1,Cholsey (Platform 1),51.5704082,-1.1586983,CHO,CHOLSEY,,Europe/London,2,1,910GCHOLSEY,0
9100CHOLSEY2,Cholsey (Platform 2),51.5704082,-1.1586983,CHO,CHOLSEY,,Europe/London,2,2,910GCHOLSEY,0
9100CHOLSEY3,Cholsey (Platform 3),51.5704082,-1.1586983,CHO,CHOLSEY,,Europe/London,2,3,910GCHOLSEY,0
9100CHOLSEY4,Cholsey (Platform 4),51.5704082,-1.1586983,CHO,CHOLSEY,,Europe/London,2,4,910GCHOLSEY,0
9100CHORBUK1,Buckshaw Parkway (Platform 1),53.6729554,-2.6589846,BSV,CHORBUK,,Europe/London,1,1,910GCHORBUK,0
9100CHORBUK2,Buckshaw Parkway (Platform 2),53.6729554,-2.6589846,BSV,CHORBUK,,Europe/London,1,2,910GCHORBUK,0
9100CHORLEY1,Chorley (Platform 1),53.6529842,-2.626934,CRL,CHORLEY,,Europe/London,1,1,910GCHORLEY,0
9100CHORLEY2,Chorley (Platform 2),53.6529842,-2.626934,CRL,CHORLEY,,Europe/London,1,2,910GCHORLEY,0
9100CHOSBUS,Church & Oswaldtwistle (Platform BUS),53.75052054571,-2.39121185982,CTW,CHOS,,Europe/London,2,BUS,910GCHOS,0
9100CHPLTWN1,Chapeltown (South Yorkshire) (Platform 1),53.4625006,-1.4664375,CLN,CHPLTWN,,Europe/London,0,1,910GCHPLTWN,0
9100CHPLTWN2,Chapeltown (South Yorkshire) (Platform 2),53.4625006,-1.4664375,CLN,CHPLTWN,,Europe/London,0,2,910GCHPLTWN,0
9100CHPLTWNBUS,Chapeltown (South Yorkshire) (Platform BUS),53.46233625267,-1.4662752287,CLN,CHPLTWN,,Europe/London,0,BUS,910GCHPLTWN,0
9100CHPWKSC1,Chappel & Wakes Colne (Platform 1),51.9258987,0.7586045,CWC,CHPWKSC,,Europe/London,0,1,910GCHPWKSC,0
9100CHRISTC1,Christchurch (Platform 1),50.7383709,-1.7847306,CHR,CHRISTC,,Europe/London,0,1,910GCHRISTC,0
9100CHRISTC2,Christchurch (Platform 2),50.7383709,-1.7847306,CHR,CHRISTC,,Europe/London,0,2,910GCHRISTC,0
9100CHRISTCBUS,Christchurch (Platform BUS),50.73821415639,-1.78454594311,CHR,CHRISTC,,Europe/London,0,BUS,910GCHRISTC,0
9100CHRSTSH1,Christs Hospital (Platform 1),51.0508094,-0.3638616,CHH,CHRSTSH,,Europe/London,0,1,910GCHRSTSH,0
9100CHRSTSH2,Christs Hospital (Platform 2),51.0508094,-0.3638616,CHH,CHRSTSH,,Europe/London,0,2,910GCHRSTSH,0
9100CHRW1,Chorleywood (Platform 1),51.6541757,-0.5183558,CLW,CHRW,,Europe/London,1,1,910GCHRW,0
9100CHRW2,Chorleywood (Platform 2),51.6541757,-0.5183558,CLW,CHRW,,Europe/London,1,2,910GCHRW,0
9100CHSD1,Chipstead (Platform 1),51.3093522,-0.1693688,CHP,CHSD,,Europe/London,0,1,910GCHSD,0
9100CHSD2,Chipstead (Platform 2),51.3093522,-0.1693688,CHP,CHSD,,Europe/London,0,2,910GCHSD,0
9100CHSDBUS,Chipstead (Platform BUS),51.30927731228,-0.16950314611,CHP,CHSD,,Europe/London,0,BUS,910GCHSD,0
9100CHSLHRSBUS,Chislehurst (Platform BUS),51.4051626,0.0578673,CIT,CHSLHRS,,Europe/London,0,BUS,910GCHSLHRS,0
9100CHSRD1,Chester Road (Platform 1),52.5357946,-1.8324576,CRD,CHSRD,,Europe/London,0,1,910GCHSRD,0
9100CHSRD2,Chester Road (Platform 2),52.5357946,-1.8324576,CRD,CHSRD,,Europe/London,0,2,910GCHSRD,0
9100CHSSN1,Chessington North (Platform 1),51.363982,-0.3007319,CSN,CHSSN,,Europe/London,2,1,910GCHSSN,0
9100CHSSN2,Chessington North (Platform 2),51.363982,-0.3007319,CSN,CHSSN,,Europe/London,2,2,910GCHSSN,0
9100CHSSNBUS,Chessington North (Platform BUS),51.36404106497,-0.30069905976,CSN,CHSSN,,Europe/London,2,BUS,910GCHSSN,0
9100CHSSS1,Chessington South (Platform 1),51.35675,-0.308097,CSS,CHSSS,,Europe/London,0,1,910GCHSSS,0
9100CHSSSBUS,Chessington South (Platform BUS),51.35655031448,-0.30815749596,CSS,CHSSS,,Europe/London,0,BUS,910GCHSSS,0
9100CHST4A,Chester (Platform 4A),53.1967494,-2.8795296,CTR,CHST,,Europe/London,1,4A,910GCHST,0
9100CHST4B,Chester (Platform 4B),53.1967494,-2.8795296,CTR,CHST,,Europe/London,1,4B,910GCHST,0
9100CHSTBUS,Chester (Platform BUS),53.1967494,-2.8795296,CTR,CHST,,Europe/London,1,BUS,910GCHST,0
9100CHSW1,Chestfield & Swalecliffe (Platform 1),51.3602828,1.0674411,CSW,CHSW,,Europe/London,2,1,910GCHSW,0
9100CHSW2,Chestfield & Swalecliffe (Platform 2),51.3602828,1.0674411,CSW,CHSW,,Europe/London,2,2,910GCHSW,0
9100CHSWBUS,Chestfield & Swalecliffe (Platform BUS),51.3602828,1.0674411,CSW,CHSW,,Europe/London,2,BUS,910GCHSW,0
9100CHTLRT1,Chatelherault (Platform 1),55.7653766,-4.0046108,CTE,CHTLRT,,Europe/London,1,1,910GCHTLRT,0
9100CHTRBUS,Cherry Tree (Platform BUS),53.73287041285,-2.51837882919,CYT,CHTR,,Europe/London,0,BUS,910GCHTR,0
9100CHTSEY1,Chertsey (Platform 1),51.3871309,-0.5094641,CHY,CHTSEY,,Europe/London,0,1,910GCHTSEY,0
9100CHTSEY2,Chertsey (Platform 2),51.3871309,-0.5094641,CHY,CHTSEY,,Europe/London,0,2,910GCHTSEY,0
9100CILMERY1,Cilmeri (Platform 1),52.1504164,-3.4567317,CIM,CILMERY,,Europe/London,0,1,910GCILMERY,0
9100CILMERYBUS,Cilmeri (Platform BUS),52.15052954473,-3.45654105773,CIM,CILMERY,,Europe/London,0,BUS,910GCILMERY,0
9100CKHL1,Corkerhill (Platform 1),55.8375398,-4.3344781,CKH,CKHL,,Europe/London,1,1,910GCKHL,0
9100CLANDON1,Clandon (Platform 1),51.2640346,-0.5028629,CLA,CLANDON,,Europe/London,0,1,910GCLANDON,0
9100CLANDON2,Clandon (Platform 2),51.2640346,-0.5028629,CLA,CLANDON,,Europe/London,0,2,910GCLANDON,0
9100CLANDONBUS,Clandon (Platform BUS),51.26400525735,-0.5027660291,CLA,CLANDON,,Europe/London,0,BUS,910GCLANDON,0
9100CLAPTON1,Clapton (Platform 1),51.5616555,-0.0568709,CPT,CLAPTON,,Europe/London,2,1,910GCLAPTON,0
9100CLAPTON2,Clapton (Platform 2),51.5616555,-0.0568709,CPT,CLAPTON,,Europe/London,2,2,910GCLAPTON,0
9100CLAPTONBUS,Clapton (Platform BUS),51.5616439327,-0.05702457493,CPT,CLAPTON,,Europe/London,2,BUS,910GCLAPTON,0
9100CLARBRD1,Clarbeston Road (Platform 1),51.8517201,-4.8821672,CLR,CLARBRD,,Europe/London,0,1,910GCLARBRD,0
9100CLARBRD2,Clarbeston Road (Platform 2),51.8517201,-4.8821672,CLR,CLARBRD,,Europe/London,0,2,910GCLARBRD,0
9100CLARBRDBUS,Clarbeston Road (Platform BUS),51.85166518143,-4.88354773429,CLR,CLARBRD,,Europe/London,0,BUS,910GCLARBRD,0
9100CLAVRDN1,Claverdon (Platform 1),52.2772189,-1.6963369,CLV,CLAVRDN,,Europe/London,0,1,910GCLAVRDN,0
9100CLCHHYT1,Hythe (Essex) (Platform 1),51.8858134,0.9275278,HYH,CLCHHYT,,Europe/London,0,1,910GCLCHHYT,0
9100CLCHHYT2,Hythe (Essex) (Platform 2),51.8858134,0.9275278,HYH,CLCHHYT,,Europe/London,0,2,910GCLCHHYT,0
9100CLCHRTN1,Colchester Town (Platform 1),51.8865086,0.9054279,CET,CLCHRTN,,Europe/London,1,1,910GCLCHRTN,0
9100CLDRCRX1,Caldercruix (Platform 1),55.8880483,-3.8887176,CAC,CLDRCRX,,Europe/London,1,1,910GCLDRCRX,0
9100CLDRCRX2,Caldercruix (Platform 2),55.8880483,-3.8887176,CAC,CLDRCRX,,Europe/London,1,2,910GCLDRCRX,0
9100CLFDOWNBUS,Clifton Down (Platform BUS),51.4644315,-2.6114362,CFN,CLFDOWN,,Europe/London,0,BUS,910GCLFDOWN,0
9100CLHM1,Collingham (Platform 1),53.1439832,-0.750266,CLM,CLHM,,Europe/London,0,1,910GCLHM,0
9100CLHM2,Collingham (Platform 2),53.1439832,-0.750266,CLM,CLHM,,Europe/London,0,2,910GCLHM,0
9100CLITHROBUS,Clitheroe (Platform BUS),53.87346611137,-2.39433631515,CLH,CLITHRO,,Europe/London,0,BUS,910GCLITHRO,0
9100CLMN1,Chilham (Platform 1),51.2444245,0.9760562,CIL,CLMN,,Europe/London,0,1,910GCLMN,0
9100CLMN2,Chilham (Platform 2),51.2444245,0.9760562,CIL,CLMN,,Europe/London,0,2,910GCLMN,0
9100CLMNBUS,Chilham (Platform BUS),51.2444245,0.9760562,CIL,CLMN,,Europe/London,0,BUS,910GCLMN,0
9100CLOCKHS1,Clock House (Platform 1),51.4087604,-0.0403022,CLK,CLOCKHS,,Europe/London,0,1,910GCLOCKHS,0
9100CLOCKHS2,Clock House (Platform 2),51.4087604,-0.0403022,CLK,CLOCKHS,,Europe/London,0,2,910GCLOCKHS,0
9100CLPHHSBUS,Clapham High Street (Platform BUS),51.46548090559,-0.13252160579,CLP,CLPHHS,,Europe/London,2,BUS,910GCLPHHS,0
9100CLPHMJ117,Clapham Junction (Platform 17),51.4644589,-0.1705184,CLJ,CLPHMJ1,,Europe/London,1,17,910GCLPHMJC,0
9100CLPHMJ1BUS,Clapham Junction (Platform BUS),51.46418690022,-0.17022139909,CLJ,CLPHMJ1,,Europe/London,1,BUS,910GCLPHMJC,0
9100CLPHMJC1,Clapham Junction (Platform 1),51.4644589,-0.1705184,CLJ,CLPHMJC,,Europe/London,1,1,910GCLPHMJC,0
9100CLPHMJCBUS,Clapham Junction (Platform BUS),51.4644589,-0.1705184,CLJ,CLPHMJC,,Europe/London,1,BUS,910GCLPHMJC,0
9100CLPHMJM3,Clapham Junction (Platform 3),51.46418757383,-0.17026456167,CLJ,CLPHMJM,,Europe/London,1,3,910GCLPHMJC,0
9100CLPHMJM4,Clapham Junction (Platform 4),51.46418757383,-0.17026456167,CLJ,CLPHMJM,,Europe/London,1,4,910GCLPHMJC,0
9100CLPHMJM5,Clapham Junction (Platform 5),51.46418757383,-0.17026456167,CLJ,CLPHMJM,,Europe/London,1,5,910GCLPHMJC,0
9100CLPHMJM6,Clapham Junction (Platform 6),51.46418757383,-0.17026456167,CLJ,CLPHMJM,,Europe/London,1,6,910GCLPHMJC,0
9100CLPHMJMBUS,Clapham Junction (Platform BUS),51.46418757383,-0.17026456167,CLJ,CLPHMJM,,Europe/London,1,BUS,910GCLPHMJC,0
9100CLPHMJW10,Clapham Junction (Platform 10),51.4641873493,-0.17025017415,CLJ,CLPHMJW,,Europe/London,1,10,910GCLPHMJC,0
9100CLPHMJW11,Clapham Junction (Platform 11),51.4641873493,-0.17025017415,CLJ,CLPHMJW,,Europe/London,1,11,910GCLPHMJC,0
9100CLPHMJW7,Clapham Junction (Platform 7),51.4641873493,-0.17025017415,CLJ,CLPHMJW,,Europe/London,1,7,910GCLPHMJC,0
9100CLPHMJW9,Clapham Junction (Platform 9),51.464989,-0.170798,CLJ,CLPHMJW,,Europe/London,1,9,910GCLPHMJC,0
9100CLPHMJWBUS,Clapham Junction (Platform BUS),51.4641873493,-0.17025017415,CLJ,CLPHMJW,,Europe/London,1,BUS,910GCLPHMJC,0
9100CLPM1,Clapham (North Yorkshire) (Platform 1),54.105416,-2.4104509,CPY,CLPM,,Europe/London,0,1,910GCLPM,0
9100CLPM2,Clapham (North Yorkshire) (Platform 2),54.105416,-2.4104509,CPY,CLPM,,Europe/London,0,2,910GCLPM,0
9100CLPMBUS,Clapham (North Yorkshire) (Platform BUS),54.10538580801,-2.41037593925,CPY,CLPM,,Europe/London,0,BUS,910GCLPM,0
9100CLRKSTN1,Clarkston (Platform 1),55.7895219,-4.2757187,CKS,CLRKSTN,,Europe/London,0,1,910GCLRKSTN,0
9100CLRKSTN2,Clarkston (Platform 2),55.7895219,-4.2757187,CKS,CLRKSTN,,Europe/London,0,2,910GCLRKSTN,0
9100CLSTBUS,Chester-le-Street (Platform BUS),54.85459440939,-1.57801525009,CLS,CLST,,Europe/London,0,BUS,910GCLST,0
9100CLTHRPSBUS,Cleethorpes (Platform BUS),53.562825,-0.0300969,CLE,CLTHRPS,,Europe/London,1,BUS,910GCLTHRPS,0
9100CLTN1,Clifton (Manchester) (Platform 1),53.5223155,-2.3141164,CLI,CLTN,,Europe/London,0,1,910GCLTN,0
9100CLTN2,Clifton (Manchester) (Platform 2),53.5223155,-2.3141164,CLI,CLTN,,Europe/London,0,2,910GCLTN,0
9100CLWALL1,Colwall (Platform 1),52.0798427,-2.3567991,CWL,CLWALL,,Europe/London,0,1,910GCLWALL,0
9100CLWALLBUS,Colwall (Platform BUS),52.07986839502,-2.35695005388,CWL,CLWALL,,Europe/London,0,BUS,910GCLWALL,0
9100CLYBANK1,Clydebank (Platform 1),55.9005667,-4.4041552,CYK,CLYBANK,,Europe/London,0,1,910GCLYBANK,0
9100CLYBANK2,Clydebank (Platform 2),55.9005667,-4.4041552,CYK,CLYBANK,,Europe/London,0,2,910GCLYBANK,0
9100CLYBANKBUS,Clydebank (Platform BUS),55.90069113461,-4.4044138717,CYK,CLYBANK,,Europe/London,0,BUS,910GCLYBANK,0
9100CLYGATE1,Claygate (Platform 1),51.3610578,-0.3484109,CLG,CLYGATE,,Europe/London,0,1,910GCLYGATE,0
9100CLYGATE2,Claygate (Platform 2),51.3610578,-0.3484109,CLG,CLYGATE,,Europe/London,0,2,910GCLYGATE,0
9100CLYGATEBUS,Claygate (Platform BUS),51.36121401224,-0.34824771704,CLG,CLYGATE,,Europe/London,0,BUS,910GCLYGATE,0
9100CLYNDRW1,Clunderwen (Platform 1),51.8401054,-4.7310195,CUW,CLYNDRW,,Europe/London,0,1,910GCLYNDRW,0
9100CLYNDRW2,Clunderwen (Platform 2),51.8401054,-4.7310195,CUW,CLYNDRW,,Europe/London,0,2,910GCLYNDRW,0
9100CLYNDRWBUS,Clunderwen (Platform BUS),51.84053980452,-4.73184180642,CUW,CLYNDRW,,Europe/London,0,BUS,910GCLYNDRW,0
9100CMBH1,Cwmbach (Platform 1),51.701481,-3.4147941,CMH,CMBH,,Europe/London,0,1,910GCMBH,0
9100CMBLEY1,Camberley (Platform 1),51.3363364,-0.7438865,CAM,CMBLEY,,Europe/London,0,1,910GCMBLEY,0
9100CMBLEY2,Camberley (Platform 2),51.3363364,-0.7438865,CAM,CMBLEY,,Europe/London,0,2,910GCMBLEY,0
9100CMBLEYBUS,Camberley (Platform BUS),51.33632761671,-0.74427163142,CAM,CMBLEY,,Europe/London,0,BUS,910GCMBLEY,0
9100CMBSLNG1,Cambuslang (Platform 1),55.8193533,-4.1726153,CBL,CMBSLNG,,Europe/London,0,1,910GCMBSLNG,0
9100CMBSLNG2,Cambuslang (Platform 2),55.8193533,-4.1726153,CBL,CMBSLNG,,Europe/London,0,2,910GCMBSLNG,0
9100CMDNRDBUS,Camden Road (Platform BUS),51.54179078703,-0.138700821,CMD,CMDNRD,,Europe/London,1,BUS,910GCMDNRD,0
9100CMTHNBUS,Carmarthen (Platform BUS),51.8533058,-4.3057649,CMN,CMTHN,,Europe/London,0,BUS,910GCMTHN,0
9100CNCK1,Cannock (Platform 1),52.6860971,-2.0223507,CAO,CNCK,,Europe/London,0,1,910GCNCK,0
9100CNCK2,Cannock (Platform 2),52.6860971,-2.0223507,CAO,CNCK,,Europe/London,0,2,910GCNCK,0
9100CNTBEBUS,Canterbury East (Platform BUS),51.27426781948,1.0759685662,CBE,CNTBE,,Europe/London,0,BUS,910GCNTBE,0
9100CNTBWBUS,Canterbury West (Platform BUS),51.2842245,1.0753092,CBW,CNTBW,,Europe/London,1,BUS,910GCNTBW,0
9100CNTLEY1,Cantley (Platform 1),52.5787207,1.5136275,CNY,CNTLEY,,Europe/London,0,1,910GCNTLEY,0
9100CNTLEY2,Cantley (Platform 2),52.5787207,1.5136275,CNY,CNTLEY,,Europe/London,0,2,910GCNTLEY,0
9100CNTLEYBUS,Cantley (Platform BUS),52.57874812482,1.51341232631,CNY,CNTLEY,,Europe/London,0,BUS,910GCNTLEY,0
9100CNTY1,Carntyne (Platform 1),55.8548998,-4.1791751,CAY,CNTY,,Europe/London,0,1,910GCNTY,0
9100CNTY2,Carntyne (Platform 2),55.8548998,-4.1791751,CAY,CNTY,,Europe/London,0,2,910GCNTY,0
9100COATBDS1,Coatbridge Sunnyside (Platform 1),55.8669052,-4.0279569,CBS,COATBDS,,Europe/London,0,1,910GCOATBDS,0
9100COATBDS2,Coatbridge Sunnyside (Platform 2),55.8669052,-4.0279569,CBS,COATBDS,,Europe/London,0,2,910GCOATBDS,0
9100COATDYK1,Coatdyke (Platform 1),55.864404,-4.0049999,COA,COATDYK,,Europe/London,2,1,910GCOATDYK,0
9100COATDYK2,Coatdyke (Platform 2),55.864404,-4.0049999,COA,COATDYK,,Europe/London,2,2,910GCOATDYK,0
9100CODNBCH1,Cooden Beach (Platform 1),50.8333713,0.4267026,COB,CODNBCH,,Europe/London,0,1,910GCODNBCH,0
9100CODNBCH2,Cooden Beach (Platform 2),50.8333713,0.4267026,COB,CODNBCH,,Europe/London,0,2,910GCODNBCH,0
9100CODSALL1,Codsall (Platform 1),52.6274199,-2.2016755,CSL,CODSALL,,Europe/London,0,1,910GCODSALL,0
9100CODSALL2,Codsall (Platform 2),52.6274199,-2.2016755,CSL,CODSALL,,Europe/London,0,2,910GCODSALL,0
9100COGAN1,Cogan (Platform 1),51.4458142,-3.1893329,CGN,COGAN,,Europe/London,0,1,910GCOGAN,0
9100COGAN2,Cogan (Platform 2),51.4458142,-3.1893329,CGN,COGAN,,Europe/London,0,2,910GCOGAN,0
9100COKSBDG1,Cooksbridge (Platform 1),50.9037132,-0.0093086,CBR,COKSBDG,,Europe/London,0,1,910GCOKSBDG,0
9100COKSBDG2,Cooksbridge (Platform 2),50.9037132,-0.0093086,CBR,COKSBDG,,Europe/London,0,2,910GCOKSBDG,0
9100COKSBDGBUS,Cooksbridge (Platform BUS),50.9037132,-0.0093086,CBR,COKSBDG,,Europe/London,0,BUS,910GCOKSBDG,0
9100COLNEBUS,Colne (Platform BUS),53.85474250517,-2.18185905977,CNE,COLNE,,Europe/London,1,BUS,910GCOLNE,0
9100COLSDNS1,Coulsdon South (Platform 1),51.315543,-0.137974,CDS,COLSDNS,,Europe/London,1,1,910GCOLSDNS,0
9100COLSDNS2,Coulsdon South (Platform 2),51.315543,-0.137974,CDS,COLSDNS,,Europe/London,1,2,910GCOLSDNS,0
9100COLSDNSBUS,Coulsdon South (Platform BUS),51.31583814927,-0.13788721377,CDS,COLSDNS,,Europe/London,1,BUS,910GCOLSDNS,0
9100COLSTWNBUS,Coulsdon Town (Platform BUS),51.32204264292,-0.13446415087,CDN,COLSTWN,,Europe/London,1,BUS,910GCOLSTWN,0
9100COMBE1,Combe (Oxon) (Platform 1),51.8326251,-1.3939977,CME,COMBE,,Europe/London,0,1,910GCOMBE,0
9100COMONDL1,Commondale (Platform 1),54.4812297,-0.9749222,COM,COMONDL,,Europe/London,2,1,910GCOMONDL,0
9100COMONDLBUS,Commondale (Platform BUS),54.48127409837,-0.97514791514,COM,COMONDL,,Europe/London,2,BUS,910GCOMONDL,0
9100CONBRGH1,Conisbrough (Platform 1),53.4895257,-1.23461,CNS,CONBRGH,,Europe/London,0,1,910GCONBRGH,0
9100CONBRGH2,Conisbrough (Platform 2),53.4895257,-1.23461,CNS,CONBRGH,,Europe/London,0,2,910GCONBRGH,0
9100CONGLTN1,Congleton (Platform 1),53.1577982,-2.1924594,CNG,CONGLTN,,Europe/London,0,1,910GCONGLTN,0
9100CONGLTN2,Congleton (Platform 2),53.1577982,-2.1924594,CNG,CONGLTN,,Europe/London,0,2,910GCONGLTN,0
9100CONWY1,Conwy (Platform 1),53.280096,-3.8306652,CNW,CONWY,,Europe/London,0,1,910GCONWY,0
9100CONWY2,Conwy (Platform 2),53.280096,-3.8306652,CNW,CONWY,,Europe/London,0,2,910GCONWY,0
9100CONWYBUS,Conwy (Platform BUS),53.28010171044,-3.83052420242,CNW,CONWY,,Europe/London,0,BUS,910GCONWY,0
9100COOKHAM1,Cookham (Platform 1),51.5573685,-0.7222499,COO,COOKHAM,,Europe/London,1,1,910GCOOKHAM,0
9100COOKHAMBUS,Cookham (Platform BUS),51.55746272201,-0.72207898509,COO,COOKHAM,,Europe/London,1,BUS,910GCOOKHAM,0
9100COOMBELIS,Coombe Junction Halt (Platform LIS),50.4451584,-4.4813527,COE,COOMBE,,Europe/London,0,LIS,910GCOOMBE,0
9100COOMBELOO,Coombe Junction Halt (Platform LOO),50.4451584,-4.4813527,COE,COOMBE,,Europe/London,0,LOO,910GCOOMBE,0
9100COPLSTN1,Copplestone (Platform 1),50.8143464,-3.7513163,COP,COPLSTN,,Europe/London,0,1,910GCOPLSTN,0
9100CORBYBUS,Corby (Platform BUS),52.48885139085,-0.68833531673,COR,CORBY,,Europe/London,1,BUS,910GCORBY,0
9100CORYTON1,Coryton (Platform 1),51.5204341,-3.2317097,COY,CORYTON,,Europe/London,0,1,910GCORYTON,0
9100COSELEY1,Coseley (Platform 1),52.5453191,-2.0858098,CSY,COSELEY,,Europe/London,0,1,910GCOSELEY,0
9100COSELEY2,Coseley (Platform 2),52.5453191,-2.0858098,CSY,COSELEY,,Europe/London,0,2,910GCOSELEY,0
9100COSFORD1,Cosford (Platform 1),52.6448458,-2.3006927,COS,COSFORD,,Europe/London,0,1,910GCOSFORD,0
9100COSFORD2,Cosford (Platform 2),52.6448458,-2.3006927,COS,COSFORD,,Europe/London,0,2,910GCOSFORD,0
9100COSHAM1,Cosham (Platform 1),50.8418849,-1.0673875,CSA,COSHAM,,Europe/London,0,1,910GCOSHAM,0
9100COSHAM2,Cosham (Platform 2),50.8418849,-1.0673875,CSA,COSHAM,,Europe/London,0,2,910GCOSHAM,0
9100COSHAMBUS,Cosham (Platform BUS),50.8418849,-1.0673875,CSA,COSHAM,,Europe/London,0,BUS,910GCOSHAM,0
9100COTNGLY1,Cottingley (Platform 1),53.7680337,-1.5877727,COT,COTNGLY,,Europe/London,0,1,910GCOTNGLY,0
9100COTNGLY2,Cottingley (Platform 2),53.7680337,-1.5877727,COT,COTNGLY,,Europe/London,0,2,910GCOTNGLY,0
9100COVAREN1,Coventry Arena (Platform 1),52.4469559,-1.4947986,CAA,COVAREN,,Europe/London,0,1,910GCOVAREN,0
9100COVAREN2,Coventry Arena (Platform 2),52.4469559,-1.4947986,CAA,COVAREN,,Europe/London,0,2,910GCOVAREN,0
9100COVARENBUS,Coventry Arena (Platform BUS),52.44773294663,-1.49412454597,CAA,COVAREN,,Europe/London,0,BUS,910GCOVAREN,0
9100COVNTRYBUS,Coventry (Platform BUS),52.400739,-1.5135474,COV,COVNTRY,,Europe/London,1,BUS,910GCOVNTRY,0
9100COWDEN1,Cowden (Kent) (Platform 1),51.1556295,0.1098981,CWN,COWDEN,,Europe/London,1,1,910GCOWDEN,0
9100COWDENBUS,Cowden (Platform BUS),51.15563724209,0.11003281206,CWN,COWDEN,,Europe/London,1,BUS,910GCOWDEN,0
9100CPNHRSTBUS,Capenhurst (Platform BUS),53.26017358053,-2.94228478229,CPU,CPNHRST,,Europe/London,0,BUS,910GCPNHRST,0
9100CRADLYH1,Cradley Heath (Platform 1),52.4694408,-2.0906252,CRA,CRADLYH,,Europe/London,0,1,910GCRADLYH,0
9100CRADLYH2,Cradley Heath (Platform 2),52.4694408,-2.0906252,CRA,CRADLYH,,Europe/London,0,2,910GCRADLYH,0
9100CRAVENABUS,Craven Arms (Platform BUS),52.442192,-2.8375532,CRV,CRAVENA,,Europe/London,0,BUS,910GCRAVENA,0
9100CRAWLEY1,Crawley (Platform 1),51.1120247,-0.1865249,CRW,CRAWLEY,,Europe/London,1,1,910GCRAWLEY,0
9100CRAWLEY2,Crawley (Platform 2),51.1120247,-0.1865249,CRW,CRAWLEY,,Europe/London,1,2,910GCRAWLEY,0
9100CRAWLEYBUS,Crawley (Platform BUS),51.1120247,-0.1865249,CRW,CRAWLEY,,Europe/London,1,BUS,910GCRAWLEY,0
9100CRBG1,Corbridge (Platform 1),54.9662648,-2.0190286,CRB,CRBG,,Europe/London,0,1,910GCRBG,0
9100CRBG2,Corbridge (Platform 2),54.9662648,-2.0190286,CRB,CRBG,,Europe/London,0,2,910GCRBG,0
9100CRBGBUS,Corbridge (Platform BUS),54.9662648,-2.0190286,CRB,CRBG,,Europe/London,0,BUS,910GCRBG,0
9100CRDFCEN1A,Cardiff Central (Platform 1A),51.4755495,-3.1797057,CDF,CRDFCEN,,Europe/London,1,1A,910GCRDFCEN,0
9100CRDFCEN1B,Cardiff Central (Platform 1B),51.4755495,-3.1797057,CDF,CRDFCEN,,Europe/London,1,1B,910GCRDFCEN,0
9100CRDFCEN2A,Cardiff Central (Platform 2A),51.4755495,-3.1797057,CDF,CRDFCEN,,Europe/London,1,2A,910GCRDFCEN,0
9100CRDFCEN2B,Cardiff Central (Platform 2B),51.4755495,-3.1797057,CDF,CRDFCEN,,Europe/London,1,2B,910GCRDFCEN,0
9100CRDFCEN6A,Cardiff Central (Platform 6A),51.4755495,-3.1797057,CDF,CRDFCEN,,Europe/London,1,6A,910GCRDFCEN,0
9100CRDFCEN6B,Cardiff Central (Platform 6B),51.4755495,-3.1797057,CDF,CRDFCEN,,Europe/London,1,6B,910GCRDFCEN,0
