stop_id,stop_name,stop_lat,stop_lon,stop_code,tiploc_code,stop_desc,stop_timezone,wheelchair_boarding,platform_code,parent_station,location_type
9100ASHVALE1,Ash Vale (Platform 1),51.2725337,-0.7214571,AHV,ASHVALE,,Europe/London,2,1,910GASHVALE,0
9100FRIMLEY1,Frimley (Platform 1),51.311784,-0.7470853,FML,FRIMLEY,,Europe/London,0,1,910GFRIMLEY,0
9100CMBLEY1,Camberley (Platform 1),51.3363364,-0.7438865,CAM,CMBLEY,,Europe/London,0,1,910GCMBLEY,0
9100BAGSHOT1,Bagshot (Platform 1),51.3643336,-0.6885039,BAG,BAGSHOT,,Europe/London,0,1,910GBAGSHOT,0
9100LNGEATN2,Long Eaton (Platform 2),52.8849595,-1.2872899,LGE,LNGEATN,,Europe/London,1,2,910GLNGEATN,0
9100NMBRLPK2,Northumberland Park (London) (Platform 2),51.6019134,-0.0538985,NUM,NMBRLPK,,Europe/London,0,2,910GNMBRLPK,0
9100ENFLDLK2,Enfield Lock (Platform 2),51.6706124,-0.0286058,ENL,ENFLDLK,,Europe/London,0,2,910GENFLDLK,0
9100ROYDON2,Roydon (Platform 2),51.775456,0.0355326,RYN,ROYDON,,Europe/London,0,2,910GROYDON,0
9100HRLWMIL2,Harlow Mill (Platform 2),51.7904439,0.1321036,HWM,HRLWMIL,,Europe/London,0,2,910GHRLWMIL,0
9100SBDGWTH2,Sawbridgeworth (Platform 2),51.8146205,0.16054,SAW,SBDGWTH,,Europe/London,0,2,910GSBDGWTH,0
9100FLKSTNC1,Folkestone Central (Platform 1),51.0828121,1.1683853,FKC,FLKSTNC,,Europe/London,1,1,910GFLKSTNC,0
9100FLKSTNW1,Folkestone West (Platform 1),51.0847184,1.1537821,FKW,FLKSTNW,,Europe/London,0,1,910GFLKSTNW,0
9100SDLG1,Sandling (Platform 1),51.0904998,1.0660027,SDG,SDLG,,Europe/London,0,1,910GSDLG,0
9100WENHNGR1,Westenhanger (Platform 1),51.0949221,1.0382037,WHA,WENHNGR,,Europe/London,0,1,910GWENHNGR,0
9100SPHS1,Staplehurst (Platform 1),51.1715258,0.5504987,SPU,SPHS,,Europe/London,1,1,910GSPHS,0
9100MARDEN1,Marden (Kent) (Platform 1),51.1754411,0.4929884,MRN,MARDEN,,Europe/London,0,1,910GMARDEN,0
9100HADFILD1,Hadfield (Platform 1),53.4608456,-1.9653832,HDF,HADFILD,,Europe/London,1,1,910GHADFILD,0
9100GLSP1,Glossop (Platform 1),53.4448108,-1.950017,GLO,GLSP,,Europe/London,1,1,910GGLSP,0
9100BRBM2,Broadbottom (Platform 2),53.4408091,-2.0163275,BDB,BRBM,,Europe/London,0,2,910GBRBM,0
9100HATRSLY2,Hattersley (Platform 2),53.445183,-2.0399051,HTY,HATRSLY,,Europe/London,2,2,910GHATRSLY,0
9100GODLY2,Godley (Platform 2),53.4523506,-2.0558149,GDL,GODLY,,Europe/London,2,2,910GGODLY,0
9100NWTH2,Newton for Hyde (Platform 2),53.4567001,-2.067531,NWN,NWTH,,Europe/London,2,2,910GNWTH,0
9100CHASNRD2,Chassen Road (Platform 2),53.4461647,-2.3678327,CSR,CHASNRD,,Europe/London,0,2,910GCHASNRD,0
9100FLIXTON2,Flixton (Platform 2),53.4437085,-2.3839554,FLI,FLIXTON,,Europe/London,0,2,910GFLIXTON,0
9100IRLAM2,Irlam (Platform 2),53.4342044,-2.4328454,IRL,IRLAM,,Europe/London,0,2,910GIRLAM,0
9100GLAZBRK2,Glazebrook (Platform 2),53.4282913,-2.4599923,GLZ,GLAZBRK,,Europe/London,0,2,910GGLAZBRK,0
9100BIRCHWD2,Birchwood (Platform 2),53.4127822,-2.5251395,BWD,BIRCHWD,,Europe/London,0,2,910GBIRCHWD,0
9100PADGATE2,Padgate (Platform 2),53.4056193,-2.5569297,PDG,PADGATE,,Europe/London,0,2,910GPADGATE,0
9100EUXT2,Euxton Balshaw Lane (Platform 2),53.6598241,-2.6716808,EBA,EUXT,,Europe/London,0,2,910GEUXT,0
9100CRSMYLF2,Crossmyloof (Platform 2),55.8339652,-4.2841408,CMY,CRSMYLF,,Europe/London,0,2,910GCRSMYLF,0
9100PLKSHWW2,Pollokshaws West (Platform 2),55.8238539,-4.3014144,PWW,PLKSHWW,,Europe/London,2,2,910GPLKSHWW,0
9100KENISHD2,Kennishead (Platform 2),55.8133809,-4.3248655,KNS,KENISHD,,Europe/London,0,2,910GKENISHD,0
9100PHLD2,Priesthill & Darnley (Platform 2),55.8120434,-4.3426047,PTL,PHLD,,Europe/London,0,2,910GPHLD,0
9100NITSH2,Nitshill (Platform 2),55.8119018,-4.3598341,NIT,NITSH,,Europe/London,0,2,910GNITSH,0
9100KLMAURS1,Kilmaurs (Platform 1),55.6373535,-4.5304766,KLM,KLMAURS,,Europe/London,0,1,910GKLMAURS,0
9100CRAWLEY2,Crawley (Platform 2),51.1120247,-0.1865249,CRW,CRAWLEY,,Europe/London,1,2,910GCRAWLEY,0
9100SBOURNE2,Southbourne (Platform 2),50.8481981,-0.9071791,SOB,SBOURNE,,Europe/London,0,2,910GSBOURNE,0
9100EMSWTH2,Emsworth (Platform 2),50.8516544,-0.9385075,EMS,EMSWTH,,Europe/London,0,2,910GEMSWTH,0
9100CHRSTSH2,Christs Hospital (Platform 2),51.0508094,-0.3638616,CHH,CHRSTSH,,Europe/London,0,2,910GCHRSTSH,0
9100BILSHST2,Billingshurst (Platform 2),51.0150946,-0.4499027,BIG,BILSHST,,Europe/London,0,2,910GBILSHST,0
9100PULBRO2,Pulborough (Platform 2),50.9575905,-0.5164713,PUL,PULBRO,,Europe/London,0,2,910GPULBRO,0
9100AMLY2,Amberley (Platform 2),50.8966534,-0.5419326,AMY,AMLY,,Europe/London,0,2,910GAMLY,0
9100ARUNDEL2,Arundel (Platform 2),50.8480121,-0.5462656,ARU,ARUNDEL,,Europe/London,0,2,910GARUNDEL,0
9100SEAFORD2,Seaford (Sussex) (Platform 2),50.7729203,0.1000064,SEF,SEAFORD,,Europe/London,1,2,910GSEAFORD,0
9100BSSN1,Bishopstone (Sussex) (Platform 1),50.7799859,0.0826201,BIP,BSSN,,Europe/London,2,1,910GBSSN,0
9100NEWHVNH2,Newhaven Harbour (Platform 2),50.7898002,0.0551622,NVH,NEWHVNH,,Europe/London,0,2,910GNEWHVNH,0
9100NEWHVNT1,Newhaven Town (Platform 1),50.7949162,0.0551243,NVN,NEWHVNT,,Europe/London,0,1,910GNEWHVNT,0
9100FAMR1,Falmer (Platform 1),50.8619409,-0.0872899,FMR,FAMR,,Europe/London,0,1,910GFAMR,0
9100MLSECMB1,Moulsecoomb (Platform 1),50.8465383,-0.1190654,MCB,MLSECMB,,Europe/London,0,1,910GMLSECMB,0
9100BRGHLRD1,London Road (Brighton) (Platform 1),50.83681,-0.1362631,LRB,BRGHLRD,,Europe/London,0,1,910GBRGHLRD,0
9100SNDP1,Sundridge Park (Platform 1),51.4139567,0.021475,SUP,SNDP,,Europe/London,0,1,910GSNDP,0
9100DUMPTNP1,Dumpton Park (Platform 1),51.3458538,1.4252755,DMP,DUMPTNP,,Europe/London,2,1,910GDUMPTNP,0
9100BRSR1,Broadstairs (Platform 1),51.360737,1.4334122,BSR,BRSR,,Europe/London,0,1,910GBRSR,0
9100WESGTOS1,Westgate-on-Sea (Platform 1),51.3812842,1.3382306,WGA,WESGTOS,,Europe/London,0,1,910GWESGTOS,0
9100BCNGNOS1,Birchington-on-Sea (Platform 1),51.3775024,1.3009038,BCH,BCNGNOS,,Europe/London,0,1,910GBCNGNOS,0
9100CHSW1,Chestfield & Swalecliffe (Platform 1),51.3602828,1.0674411,CSW,CHSW,,Europe/London,2,1,910GCHSW,0
9100WHSTBLE1,Whitstable (Platform 1),51.3576861,1.0343648,WHI,WHSTBLE,,Europe/London,0,1,910GWHSTBLE,0
9100LENHAM1,Lenham (Platform 1),51.2344619,0.7072408,LEN,LENHAM,,Europe/London,0,1,910GLENHAM,0
9100BARMING1,Barming (Platform 1),51.2848536,0.4792926,BMG,BARMING,,Europe/London,0,1,910GBARMING,0
9100CAMHTH2,Cambridge Heath (Platform 2),51.5319544,-0.0574215,CBH,CAMHTH,,Europe/London,2,2,910GCAMHTH,0
9100RCTRYRD2,Rectory Road (Platform 2),51.5591049,-0.0686408,REC,RCTRYRD,,Europe/London,1,2,910GRCTRYRD,0
9100STKNWNG2,Stoke Newington (Platform 2),51.5651868,-0.0727844,SKW,STKNWNG,,Europe/London,2,2,910GSTKNWNG,0
9100STMFDHL2,Stamford Hill (Platform 2),51.5748867,-0.0762903,SMH,STMFDHL,,Europe/London,2,2,910GSTMFDHL,0
9100BRUCGRV2,Bruce Grove (Platform 2),51.5937122,-0.070011,BCV,BRUCGRV,,Europe/London,2,2,910GBRUCGRV,0
9100WHHRTLA2,White Hart Lane (Platform 2),51.6045787,-0.0707508,WHL,WHHRTLA,,Europe/London,1,2,910GWHHRTLA,0
9100SIVRST2,Silver Street (Platform 2),51.6152771,-0.0668979,SLV,SIVRST,,Europe/London,1,2,910GSIVRST,0
9100EDMNGRN2,Edmonton Green (Platform 2),51.624503,-0.0614266,EDR,EDMNGRN,,Europe/London,1,2,910GEDMNGRN,0
9100BHILLPK2,Bush Hill Park (Platform 2),51.6417042,-0.0694005,BHK,BHILLPK,,Europe/London,0,2,910GBHILLPK,0
9100KMSLY2,Kemsley (Platform 2),51.3617377,0.7349601,KML,KMSLY,,Europe/London,0,2,910GKMSLY,0
9100SWALE1,Swale (Platform 1),51.3889653,0.7468492,SWL,SWALE,,Europe/London,0,1,910GSWALE,0
9100ESSEXRD2,Essex Road (Platform 2),51.5407328,-0.0961859,EXR,ESSEXRD,,Europe/London,2,2,910GESSEXRD,0
9100DRYP2,Drayton Park (Platform 2),51.5531063,-0.1057696,DYP,DRYP,,Europe/London,2,2,910GDRYP,0
9100NEWSGAT4,New Southgate (Platform 4),51.613804,-0.1428091,NSG,NEWSGAT,,Europe/London,2,4,910GNEWSGAT,0
9100OKLGHPK4,Oakleigh Park (Platform 4),51.6376675,-0.1662251,OKL,OKLGHPK,,Europe/London,2,4,910GOKLGHPK,0
9100HADLYWD4,Hadley Wood (Platform 4),51.6686291,-0.1761376,HDW,HADLYWD,,Europe/London,0,4,910GHADLYWD,0
9100BRKMNPK4,Brookmans Park (Platform 4),51.7211572,-0.2048356,BPK,BRKMNPK,,Europe/London,2,4,910GBRKMNPK,0
9100WELHAMG2,Welham Green (Platform 2),51.736419,-0.2105454,WMG,WELHAMG,,Europe/London,0,2,910GWELHAMG,0
9100WHYTLFS1,Whyteleafe South (Platform 1),51.3037508,-0.0772314,WHS,WHYTLFS,,Europe/London,0,1,910GWHYTLFS,0
9100KNLY1,Kenley (Platform 1),51.3247757,-0.100844,KLY,KNLY,,Europe/London,0,1,910GKNLY,0
9100ESHER4,Esher (Platform 4),51.3800529,-0.3532042,ESH,ESHER,,Europe/London,0,4,910GESHER,0
9100WONT2,Walton-on-Thames (Platform 2),51.3729077,-0.4143441,WAL,WONT,,Europe/London,0,2,910GWONT,0
9100BRKWOOD2,Brookwood (Platform 2),51.3035819,-0.6359925,BKO,BRKWOOD,,Europe/London,0,2,910GBRKWOOD,0
9100FLEET2,Fleet (Platform 2),51.2906158,-0.8313789,FLE,FLEET,,Europe/London,1,2,910GFLEET,0
9100WNCFILD2,Winchfield (Platform 2),51.2847339,-0.9070163,WNF,WNCFILD,,Europe/London,0,2,910GWNCFILD,0
9100HOOK2,Hook (Platform 2),51.2798793,-0.9614163,HOK,HOOK,,Europe/London,0,2,910GHOOK,0
9100TEINMTH2,Teignmouth (Platform 2),50.5481567,-3.4946798,TGM,TEINMTH,,Europe/London,0,2,910GTEINMTH,0
9100DAWLISH2,Dawlish (Platform 2),50.5806101,-3.4644482,DWL,DAWLISH,,Europe/London,1,2,910GDAWLISH,0
9100BRDGWTR2,Bridgwater (Platform 2),51.1278436,-2.9902484,BWT,BRDGWTR,,Europe/London,0,2,910GBRDGWTR,0
9100HGHBRDG2,Highbridge & Burnham (Platform 2),51.2183132,-2.9720037,HIG,HGHBRDG,,Europe/London,0,2,910GHGHBRDG,0
9100BTLSBDG1,Battlesbridge (Platform 1),51.6249307,0.5656286,BLB,BTLSBDG,,Europe/London,1,1,910GBTLSBDG,0
9100WDHAMFR1,South Woodham Ferrers (Platform 1),51.6494076,0.6060545,SOF,WDHAMFR,,Europe/London,1,1,910GWDHAMFR,0
9100FAMBDGE2,North Fambridge (Platform 2),51.6486316,0.6817622,NFA,FAMBDGE,,Europe/London,0,2,910GFAMBDGE,0
9100ALTHORN1,Althorne (Essex) (Platform 1),51.6477849,0.7517966,ALN,ALTHORN,,Europe/London,1,1,910GALTHORN,0
9100BRNMONC1,Burnham-on-Crouch (Platform 1),51.6336033,0.8136583,BUU,BRNMONC,,Europe/London,0,1,910GBRNMONC,0
9100SMINSTR1,Southminster (Platform 1),51.6606424,0.8353716,SMN,SMINSTR,,Europe/London,1,1,910GSMINSTR,0
9100CARDFBR1,Cardiff Bay (Platform 1),51.4673505,-3.1666863,CDB,CARDFBR,,Europe/London,0,1,910GCARDFBR,0
9100DISS2,Diss (Platform 2),52.3736162,1.1235411,DIS,DISS,,Europe/London,0,2,910GDISS,0
9100GWRSYLT1,Gwersyllt (Platform 1),53.0727884,-3.0176175,GWE,GWRSYLT,,Europe/London,0,1,910GGWRSYLT,0
9100CEFNYBD1,Cefn-y-Bedd (Platform 1),53.0988378,-3.0308499,CYB,CEFNYBD,,Europe/London,0,1,910GCEFNYBD,0
9100CAERGWL1,Caergwrle (Platform 1),53.1080896,-3.0332375,CGW,CAERGWL,,Europe/London,0,1,910GCAERGWL,0
9100HOPC1,Hope (Flintshire) (Platform 1),53.1168595,-3.0372474,HPE,HOPC,,Europe/London,0,1,910GHOPC,0
9100PNYF1,Penyffordd (Platform 1),53.1427065,-3.0548121,PNF,PNYF,,Europe/London,0,1,910GPNYF,0
9100BCKY1,Buckley (Platform 1),53.1625354,-3.0551852,BCK,BCKY,,Europe/London,0,1,910GBCKY,0
9100HAWARDN1,Hawarden (Platform 1),53.1848468,-3.0320721,HWD,HAWARDN,,Europe/London,0,1,910GHAWARDN,0
9100SHOTTHL3,Shotton (Platform 3),53.2125372,-3.0383059,SHT,SHOTTHL,,Europe/London,0,3,910GSHOTTON,0
9100HAWDNBG2,Hawarden Bridge (Platform 2),53.2181055,-3.0323456,HWB,HAWDNBG,,Europe/London,0,2,910GHAWDNBG,0
9100NESTON1,Neston (Platform 1),53.2917321,-3.062958,NES,NESTON,,Europe/London,0,1,910GNESTON,0
9100HESWALL1,Heswall (Platform 1),53.3296559,-3.0733389,HSW,HESWALL,,Europe/London,0,1,910GHESWALL,0
9100UPTON1,Upton (Merseyside) (Platform 1),53.3864458,-3.0841027,UPT,UPTON,,Europe/London,0,1,910GUPTON,0
9100LTHH2,Lisvane & Thornhill (Platform 2),51.5444152,-3.1855685,LVT,LTHH,,Europe/London,0,2,910GLTHH,0
9100LLISHEN2,Llanishen (Platform 2),51.5329957,-3.181843,LLS,LLISHEN,,Europe/London,0,2,910GLLISHEN,0
9100HEATHHL2,Heath High Level (Platform 2),51.5168194,-3.181568,HHL,HEATHHL,,Europe/London,0,2,910GHEATHHL,0
9100GNTN2,Grangetown (Cardiff) (Platform 2),51.4672525,-3.1895595,GTN,GNTN,,Europe/London,2,2,910GGNTN,0
9100DGLROAD1,Dingle Road (Platform 1),51.4399933,-3.1799893,DGL,DGLROAD,,Europe/London,0,1,910GDGLROAD,0
9100PENARTH1,Penarth (Platform 1),51.4358489,-3.1746781,PEN,PENARTH,,Europe/London,0,1,910GPENARTH,0
9100EKILBRD1,East Kilbride (Platform 1),55.7659902,-4.1809174,EKL,EKILBRD,,Europe/London,1,1,910GEKILBRD,0
9100HARMYRS1,Hairmyres (Platform 1),55.7619088,-4.2205481,HMY,HARMYRS,,Europe/London,1,1,910GHARMYRS,0
9100THAL1,Thorntonhall (Platform 1),55.7684609,-4.2509187,THT,THAL,,Europe/London,1,1,910GTHAL,0
9100BUSBY1,Busby (Platform 1),55.7803927,-4.2622278,BUS,BUSBY,,Europe/London,0,1,910GBUSBY,0
9100CLRKSTN1,Clarkston (Platform 1),55.7895219,-4.2757187,CKS,CLRKSTN,,Europe/London,0,1,910GCLRKSTN,0
9100GIFNOCK1,Giffnock (Platform 1),55.8041667,-4.2930578,GFN,GIFNOCK,,Europe/London,0,1,910GGIFNOCK,0
9100THLB1,Thornliebank (Platform 1),55.8110635,-4.3117213,THB,THLB,,Europe/London,0,1,910GTHLB,0
9100PLKSHWW1,Pollokshaws West (Platform 1),55.8238539,-4.3014144,PWW,PLKSHWW,,Europe/London,2,1,910GPLKSHWW,0
9100CRSMYLF1,Crossmyloof (Platform 1),55.8339652,-4.2841408,CMY,CRSMYLF,,Europe/London,0,1,910GCRSMYLF,0
9100TLBYTWN2,Tilbury Town (Platform 2),51.4624598,0.3538289,TIL,TLBYTWN,,Europe/London,1,2,910GTLBYTWN,0
9100CHLKWEL2,Chalkwell (Platform 2),51.5386117,0.6698419,CHW,CHLKWEL,,Europe/London,2,2,910GCHLKWEL,0
9100STHNDE2,Southend East (Platform 2),51.5389057,0.73149,SOE,STHNDE,,Europe/London,0,2,910GSTHNDE,0
9100WHWLL1,Whitwell (Derbyshire) (Platform 1),53.2799663,-1.2002363,WWL,WHWLL,,Europe/London,0,1,910GWHWLL,0
9100MFLDTWN2,Mansfield (Platform 2),53.142079,-1.1985012,MFT,MFLDTWN,,Europe/London,0,2,910GMFLDTWN,0
9100STTNPWY2,Sutton Parkway (Platform 2),53.1141408,-1.2455485,SPK,STTNPWY,,Europe/London,0,2,910GSTTNPWY,0
9100KRKYCEN1,Kirkby-in-Ashfield (Platform 1),53.1000196,-1.2532679,KKB,KRKYCEN,,Europe/London,2,1,910GKRKYCEN,0
9100NWSTEAD1,Newstead (Platform 1),53.069977,-1.2218222,NSD,NWSTEAD,,Europe/London,0,1,910GNWSTEAD,0
9100HUCKNAL1,Hucknall (Platform 1),53.0384983,-1.1959496,HKN,HUCKNAL,,Europe/London,0,1,910GHUCKNAL,0
9100BULWELL1,Bulwell (Platform 1),52.9993437,-1.1953957,BLW,BULWELL,,Europe/London,0,1,910GBULWELL,0
9100STANMFC2,Stansted Mountfitchet (Platform 2),51.9012727,0.1992411,SST,STANMFC,,Europe/London,0,2,910GSTANMFC,0
9100LBGHJN2,Loughborough Junction (Platform 2),51.4662551,-0.1021612,LGJ,LBGHJN,,Europe/London,2,2,910GLBGHJN,0
9100ESTFLDS2,Mitcham Eastfields (Platform 2),51.4073954,-0.154872,MTC,ESTFLDS,,Europe/London,0,2,910GESTFLDS,0
9100MITCHMJ2,Mitcham Junction (Platform 2),51.392945,-0.1577774,MIJ,MITCHMJ,,Europe/London,0,2,910GMITCHMJ,0
9100HKBG2,Hackbridge (Platform 2),51.3780278,-0.1537197,HCB,HKBG,,Europe/London,0,2,910GHKBG,0
9100CRSHLTN2,Carshalton (Platform 2),51.3685771,-0.1663814,CSH,CRSHLTN,,Europe/London,1,2,910GCRSHLTN,0
9100WDWTOWN2,Wandsworth Town (Platform 2),51.4609627,-0.1882512,WNT,WDWTOWN,,Europe/London,2,2,910GWDWTOWN,0
9100BNSBDGE2,Barnes Bridge (Platform 2),51.4720123,-0.2526332,BNI,BNSBDGE,,Europe/London,2,2,910GBNSBDGE,0
9100CHISWCK2,Chiswick (Platform 2),51.4811465,-0.2681753,CHK,CHISWCK,,Europe/London,0,2,910GCHISWCK,0
9100BNTFORD2,Brentford (Platform 2),51.4876569,-0.3096825,BFD,BNTFORD,,Europe/London,1,2,910GBNTFORD,0
9100SYONLA2,Syon Lane (Platform 2),51.4818147,-0.32478,SYL,SYONLA,,Europe/London,0,2,910GSYONLA,0
9100ISLEWTH2,Isleworth (Platform 2),51.4748823,-0.3368946,ISL,ISLEWTH,,Europe/London,0,2,910GISLEWTH,0
9100ASFDMSX2,Ashford (Surrey) (Platform 2),51.436496,-0.4683126,AFS,ASFDMSX,,Europe/London,0,2,910GASFDMSX,0
9100EGHAM2,Egham (Platform 2),51.4294065,-0.5465778,EGH,EGHAM,,Europe/London,0,2,910GEGHAM,0
9100CHTSEY1,Chertsey (Platform 1),51.3871309,-0.5094641,CHY,CHTSEY,,Europe/London,0,1,910GCHTSEY,0
9100ADLESTN1,Addlestone (Platform 1),51.3731128,-0.4845082,ASN,ADLESTN,,Europe/London,0,1,910GADLESTN,0
9100SHRGHAM1,Sheringham (Platform 1),52.9413671,1.2107897,SHM,SHRGHAM,,Europe/London,1,1,910GSHRGHAM,0
9100WRUNTON1,West Runton (Platform 1),52.9355238,1.2458181,WRN,WRUNTON,,Europe/London,1,1,910GWRUNTON,0
9100NWALSHM1,North Walsham (Platform 1),52.8168645,1.3845702,NWA,NWALSHM,,Europe/London,0,1,910GNWALSHM,0
9100WROXHAM1,Hoveton & Wroxham (Platform 1),52.7154885,1.4080243,HXM,WROXHAM,,Europe/London,0,1,910GWROXHAM,0
9100GIPSYH1,Gipsy Hill (Platform 1),51.4245334,-0.0840424,GIP,GIPSYH,,Europe/London,0,1,910GGIPSYH,0
9100WANDCMN2,Wandsworth Common (Platform 2),51.4461242,-0.1635168,WSW,WANDCMN,,Europe/London,0,2,910GWANDCMN,0
9100PLKLHDE2,Pollokshields East (Platform 2),55.8407606,-4.2690794,PLE,PLKLHDE,,Europe/London,2,2,910GPLKLHDE,0
9100QUNPARK2,Queens Park (Glasgow) (Platform 2),55.8354076,-4.2669343,QPK,QUNPARK,,Europe/London,2,2,910GQUNPARK,0
9100CROSSHL2,Crosshill (Platform 2),55.8331586,-4.2565978,COI,CROSSHL,,Europe/London,2,2,910GCROSSHL,0
9100CFFT2,Croftfoot (Platform 2),55.818309,-4.2283132,CFF,CFFT,,Europe/London,2,2,910GCFFT,0
9100BRSDE2,Burnside (South Lanarkshire) (Platform 2),55.8169392,-4.2031241,BUI,BRSDE,,Europe/London,2,2,910GBRSDE,0
9100KRKH2,Kirkhill (Platform 2),55.8140092,-4.1673394,KKH,KRKH,,Europe/London,0,2,910GKRKH,0
9100BMLY2,Bramley (Hampshire) (Platform 2),51.3299792,-1.0608367,BMY,BMLY,,Europe/London,0,2,910GBMLY,0
9100THATCHM2,Thatcham (Platform 2),51.3938591,-1.2427417,THA,THATCHM,,Europe/London,0,2,910GTHATCHM,0
9100THEALE1,Theale (Platform 1),51.4333628,-1.074364,THE,THEALE,,Europe/London,2,1,910GTHEALE,0
9100WMER1,Windermere (Platform 1),54.3794896,-2.9033054,WDM,WMER,,Europe/London,1,1,910GWMER,0
9100STAVELY1,Staveley (Cumbria) (Platform 1),54.3756184,-2.8190719,SVL,STAVELY,,Europe/London,2,1,910GSTAVELY,0
9100BNSD1,Burneside (Cumbria) (Platform 1),54.3555182,-2.767351,BUD,BNSD,,Europe/London,0,1,910GBNSD,0
9100KENDAL1,Kendal (Platform 1),54.3322466,-2.7401448,KEN,KENDAL,,Europe/London,1,1,910GKENDAL,0
9100MRTLKE2,Mortlake (Platform 2),51.4680644,-0.2673708,MTL,MRTLKE,,Europe/London,0,2,910GMRTLKE,0
9100NSHEEN2,North Sheen (Platform 2),51.4653247,-0.2865821,NSH,NSHEEN,,Europe/London,2,2,910GNSHEEN,0
9100STMGTS3,St Margarets (London) (Platform 3),51.4551535,-0.3202187,SMG,STMGTS,,Europe/London,0,3,910GSTMGTS,0
9100TEDNGTN2,Teddington (Platform 2),51.4244662,-0.3325731,TED,TEDNGTN,,Europe/London,0,2,910GTEDNGTN,0
9100NRBITON1,Norbiton (Platform 1),51.4123032,-0.2840976,NBT,NRBITON,,Europe/London,0,1,910GNRBITON,0
9100NEWMLDN1,New Malden (Platform 1),51.4039615,-0.2557593,NEM,NEWMLDN,,Europe/London,0,1,910GNEWMLDN,0
9100RAYNSPK2,Raynes Park (Platform 2),51.408966,-0.23054,RAY,RAYNSPK,,Europe/London,0,2,910GRAYNSPK,0
9100ERLFLD2,Earlsfield (Platform 2),51.4424033,-0.1876937,EAD,ERLFLD,,Europe/London,1,2,910GERLFLD,0
9100LEIGHK1,Leigh (Kent) (Platform 1),51.1939929,0.2112588,LIH,LEIGHK,,Europe/London,0,1,910GLEIGHK,0
9100PNSHRST1,Penshurst (Platform 1),51.1972229,0.1734867,PHR,PNSHRST,,Europe/London,0,1,910GPNSHRST,0
9100EDNB1,Edenbridge (Kent) (Platform 1),51.2083661,0.0598637,EBR,EDNB,,Europe/London,0,1,910GEDNB,0
9100GODSTON1,Godstone (Platform 1),51.2181855,-0.0514363,GDN,GODSTON,,Europe/London,0,1,910GGODSTON,0
9100NUTFILD1,Nutfield (Platform 1),51.2267445,-0.1322636,NUF,NUTFILD,,Europe/London,0,1,910GNUTFILD,0
9100WANBRO2,Wanborough (Platform 2),51.244622,-0.6676084,WAN,WANBRO,,Europe/London,0,2,910GWANBRO,0
9100ASHH2,Ash (Platform 2),51.2497298,-0.7129145,ASH,ASHH,,Europe/London,0,2,910GASHH,0
9100TRWBRDG1,Trowbridge (Platform 1),51.3200055,-2.2143313,TRO,TRWBRDG,,Europe/London,0,1,910GTRWBRDG,0
9100BRDFDOA1,Bradford-on-Avon (Platform 1),51.344789,-2.2527549,BOA,BRDFDOA,,Europe/London,0,1,910GBRDFDOA,0
9100WELHAMG1,Welham Green (Platform 1),51.736419,-0.2105454,WMG,WELHAMG,,Europe/London,0,1,910GWELHAMG,0
9100BRKMNPK1,Brookmans Park (Platform 1),51.7211572,-0.2048356,BPK,BRKMNPK,,Europe/London,2,1,910GBRKMNPK,0
9100HADLYWD1,Hadley Wood (Platform 1),51.6686291,-0.1761376,HDW,HADLYWD,,Europe/London,0,1,910GHADLYWD,0
9100OKLGHPK1,Oakleigh Park (Platform 1),51.6376675,-0.1662251,OKL,OKLGHPK,,Europe/London,2,1,910GOKLGHPK,0
9100NEWSGAT1,New Southgate (Platform 1),51.613804,-0.1428091,NSG,NEWSGAT,,Europe/London,2,1,910GNEWSGAT,0
9100DRYP1,Drayton Park (Platform 1),51.5531063,-0.1057696,DYP,DRYP,,Europe/London,2,1,910GDRYP,0
9100ESSEXRD1,Essex Road (Platform 1),51.5407328,-0.0961859,EXR,ESSEXRD,,Europe/London,2,1,910GESSEXRD,0
9100MTHRNGH2,Metheringham (Platform 2),53.1389295,-0.3910625,MGM,MTHRNGH,,Europe/London,0,2,910GMTHRNGH,0
9100RSKNGTN2,Ruskington (Platform 2),53.0413872,-0.3804741,RKT,RSKNGTN,,Europe/London,0,2,910GRSKNGTN,0
9100OULTNBN1,Oulton Broad North (Platform 1),52.4777293,1.7161761,OUN,OULTNBN,,Europe/London,0,1,910GOULTNBN,0
9100SMRLYTN1,Somerleyton (Platform 1),52.5101722,1.6521994,SYT,SMRLYTN,,Europe/London,0,1,910GSMRLYTN,0
9100HADISCO1,Haddiscoe (Platform 1),52.5290248,1.6229897,HAD,HADISCO,,Europe/London,0,1,910GHADISCO,0
9100RDHAMN1,Reedham (Norfolk) (Platform 1),52.564446,1.559524,REE,RDHAMN,,Europe/London,0,1,910GRDHAMN,0
9100CNTLEY1,Cantley (Platform 1),52.5787207,1.5136275,CNY,CNTLEY,,Europe/London,0,1,910GCNTLEY,0
9100BRUNDAL1,Brundall (Platform 1),52.6196558,1.4386558,BDA,BRUNDAL,,Europe/London,0,1,910GBRUNDAL,0
9100LNGEATN1,Long Eaton (Platform 1),52.8849595,-1.2872899,LGE,LNGEATN,,Europe/London,1,1,910GLNGEATN,0
9100HRNSY2,Hornsey (Platform 2),51.5863215,-0.1116832,HRN,HRNSY,,Europe/London,2,2,910GHRNSY,0
9100BOWESPK2,Bowes Park (Platform 2),51.6071861,-0.1204848,BOP,BOWESPK,,Europe/London,2,2,910GBOWESPK,0
9100PALMRSG2,Palmers Green (Platform 2),51.6186609,-0.1101687,PAL,PALMRSG,,Europe/London,2,2,910GPALMRSG,0
9100WNMHILL2,Winchmore Hill (Platform 2),51.6340675,-0.1009414,WIH,WNMHILL,,Europe/London,2,2,910GWNMHILL,0
9100GRPK2,Grange Park (Platform 2),51.6433292,-0.0969391,GPK,GRPK,,Europe/London,2,2,910GGRPK,0
9100ENFC2,Enfield Chase (Platform 2),51.6526384,-0.0908639,ENC,ENFC,,Europe/London,2,2,910GENFC,0
9100CRHL2,Crews Hill (Platform 2),51.6847476,-0.1072562,CWH,CRHL,,Europe/London,2,2,910GCRHL,0
9100CUFFLEY2,Cuffley (Platform 2),51.7091464,-0.1097981,CUF,CUFFLEY,,Europe/London,0,2,910GCUFFLEY,0
9100BAYFORD2,Bayford (Platform 2),51.7579011,-0.0957274,BAY,BAYFORD,,Europe/London,0,2,910GBAYFORD,0
9100BRIXTON2,Brixton (Platform 2),51.4628953,-0.1133473,BRX,BRIXTON,,Europe/London,2,2,910GBRIXTON,0
9100WDULWCH2,West Dulwich (Platform 2),51.4402849,-0.0908906,WDU,WDULWCH,,Europe/London,2,2,910GWDULWCH,0
9100SYDNHMH2,Sydenham Hill (Platform 2),51.4326101,-0.0801504,SYH,SYDNHMH,,Europe/London,2,2,910GSYDNHMH,0
9100PNGEE2,Penge East (Platform 2),51.4193151,-0.0541364,PNE,PNGEE,,Europe/London,0,2,910GPNGEE,0
9100BCKNHMJ3,Beckenham Junction (Platform 3),51.4110623,-0.0259866,BKJ,BCKNHMJ,,Europe/London,0,3,910GBCKNHMJ,0
9100SHRTLND2,Shortlands (Platform 2),51.4059051,0.0021679,SRT,SHRTLND,,Europe/London,2,2,910GSHRTLND,0
9100BICKLEY2,Bickley (Platform 2),51.4000641,0.0443369,BKL,BICKLEY,,Europe/London,2,2,910GBICKLEY,0
9100PETSWD4,Petts Wood (Platform 4),51.388626,0.0745614,PET,PETSWD,,Europe/London,1,4,910GPETSWD,0
9100BELVEDR1,Belvedere (Platform 1),51.4922273,0.1533667,BVD,BELVEDR,,Europe/London,0,1,910GBELVEDR,0
9100MAZEH1,Maze Hill (Platform 1),51.4826479,0.00375,MZH,MAZEH,,Europe/London,0,1,910GMAZEH,0
9100MOTNGHM2,Mottingham (Platform 2),51.4402515,0.0499618,MTG,MOTNGHM,,Europe/London,0,2,910GMOTNGHM,0
9100NWELTHM2,New Eltham (Platform 2),51.4380136,0.0709469,NEH,NWELTHM,,Europe/London,0,2,910GNWELTHM,0
9100ALBNYPK2,Albany Park (Platform 2),51.4353837,0.1259653,AYP,ALBNYPK,,Europe/London,2,2,910GALBNYPK,0
9100BEXLEY2,Bexley (Platform 2),51.4402375,0.1479494,BXY,BEXLEY,,Europe/London,1,2,910GBEXLEY,0
9100STCR2,Stone Crossing (Platform 2),51.4514164,0.2634425,SCG,STCR,,Europe/London,2,2,910GSTCR,0
9100WSLE1,West St Leonards (Platform 1),50.8532059,0.5399644,WLD,WSLE,,Europe/London,0,1,910GWSLE,0
9100CRWHRST1,Crowhurst (Platform 1),50.8886625,0.5014804,CWU,CRWHRST,,Europe/London,0,1,910GCRWHRST,0
9100BATTLE1,Battle (Platform 1),50.9128867,0.4949233,BAT,BATTLE,,Europe/London,0,1,910GBATTLE,0
9100RBRTSBD1,Robertsbridge (Platform 1),50.9855542,0.4686815,RBR,RBRTSBD,,Europe/London,0,1,910GRBRTSBD,0
9100ETCHNGM1,Etchingham (Platform 1),51.0106562,0.4423838,ETC,ETCHNGM,,Europe/London,0,1,910GETCHNGM,0
9100SNGT1,Stonegate (Platform 1),51.0201404,0.363387,SOG,SNGT,,Europe/London,0,1,910GSNGT,0
9100WADHRST1,Wadhurst (Platform 1),51.0733883,0.3130406,WAD,WADHRST,,Europe/London,0,1,910GWADHRST,0
9100FRANT1,Frant (Platform 1),51.1040897,0.2943374,FRT,FRANT,,Europe/London,0,1,910GFRANT,0
9100HBROOMS1,High Brooms (Platform 1),51.1497792,0.2779622,HIB,HBROOMS,,Europe/London,0,1,910GHBROOMS,0
9100CLAPTON2,Clapton (Platform 2),51.5616555,-0.0568709,CPT,CLAPTON,,Europe/London,2,2,910GCLAPTON,0
9100STJMSST2,St James Street (Walthamstow) (Platform 2),51.5811716,-0.0322047,SJS,STJMSST,,Europe/London,2,2,910GSTJMSST,0
9100WDST2,Wood Street (Platform 2),51.587041,-0.0016791,WST,WDST,,Europe/London,2,2,910GWDST,0
9100HGHMSPK2,Highams Park (Platform 2),51.6088927,-0.0001301,HIP,HGHMSPK,,Europe/London,1,2,910GHGHMSPK,0
9100DISS1,Diss (Platform 1),52.3736162,1.1235411,DIS,DISS,,Europe/London,0,1,910GDISS,0
9100EDINPRK2,Edinburgh Park (Platform 2),55.927551,-3.307788,EDP,EDINPRK,,Europe/London,1,2,910GEDINPRK,0
9100BGOALAN2,Bridge of Allan (Platform 2),56.1567462,-3.9572856,BEA,BGOALAN,,Europe/London,0,2,910GBGOALAN,0
9100EMRSPKH1,Emerson Park (Platform 1),51.5686007,0.2202375,EMP,EMRSPKH,,Europe/London,1,1,910GEMRSPKH,0
9100STHNDE1,Southend East (Platform 1),51.5389057,0.73149,SOE,STHNDE,,Europe/London,0,1,910GSTHNDE,0
9100CHLKWEL1,Chalkwell (Platform 1),51.5386117,0.6698419,CHW,CHLKWEL,,Europe/London,2,1,910GCHLKWEL,0
9100STJOHNS2,St Johns (London) (Platform 2),51.4690905,-0.0221846,SAJ,STJOHNS,,Europe/London,2,2,910GSTJOHNS,0
9100DEPTFD1,Deptford (Platform 1),51.4789824,-0.0266353,DEP,DEPTFD,,Europe/London,1,1,910GDEPTFD,0
9100BRGHLRD2,London Road (Brighton) (Platform 2),50.83681,-0.1362631,LRB,BRGHLRD,,Europe/London,0,2,910GBRGHLRD,0
9100MLSECMB2,Moulsecoomb (Platform 2),50.8465383,-0.1190654,MCB,MLSECMB,,Europe/London,0,2,910GMLSECMB,0
9100FAMR2,Falmer (Platform 2),50.8619409,-0.0872899,FMR,FAMR,,Europe/London,0,2,910GFAMR,0
9100GLYNDE2,Glynde (Platform 2),50.8591176,0.0703481,GLY,GLYNDE,,Europe/London,0,2,910GGLYNDE,0
9100BERWICK2,Berwick (Sussex) (Platform 2),50.8404862,0.1657244,BRK,BERWICK,,Europe/London,0,2,910GBERWICK,0
9100POLGATE2,Polegate (Platform 2),50.8211277,0.2467483,PLG,POLGATE,,Europe/London,0,2,910GPOLGATE,0
9100MRKTHRB1,Market Harborough (Platform 1),52.4802412,-0.9091337,MHR,MRKTHRB,,Europe/London,1,1,910GMRKTHRB,0
9100BESTON1,Beeston (Platform 1),52.9207938,-1.2075065,BEE,BESTON,,Europe/London,0,1,910GBESTON,0
9100SEAMER1,Seamer (Platform 1),54.2406582,-0.4169939,SEM,SEAMER,,Europe/London,1,1,910GSEAMER,0
9100MALTON1,Malton (Platform 1),54.1318572,-0.7977286,MLT,MALTON,,Europe/London,1,1,910GMALTON,0
9100ROHL1,Rose Hill Marple (Platform 1),53.3960432,-2.0765086,RSH,ROHL,,Europe/London,1,1,910GROHL,0
9100HYDEN2,Hyde North (Platform 2),53.4644638,-2.0850338,HYT,HYDEN,,Europe/London,2,2,910GHYDEN,0
9100CLCHRTN1,Colchester Town (Platform 1),51.8865086,0.9054279,CET,CLCHRTN,,Europe/London,1,1,910GCLCHRTN,0
9100WTLESFD2,Whittlesford Parkway (Platform 2),52.1035456,0.1656879,WLF,WTLESFD,,Europe/London,0,2,910GWTLESFD,0
9100ERLFLD3,Earlsfield (Platform 3),51.4424033,-0.1876937,EAD,ERLFLD,,Europe/London,1,3,910GERLFLD,0
9100HERSHAM2,Hersham (Platform 2),51.3769063,-0.3895797,HER,HERSHAM,,Europe/London,2,2,910GHERSHAM,0
9100BYFLANH2,Byfleet & New Haw (Platform 2),51.3496809,-0.48122,BFN,BYFLANH,,Europe/London,2,2,910GBYFLANH,0
9100WBYFLET2,West Byfleet (Platform 2),51.3396192,-0.505218,WBY,WBYFLET,,Europe/London,0,2,910GWBYFLET,0
9100RAYNSPK4,Raynes Park (Platform 4),51.408966,-0.23054,RAY,RAYNSPK,,Europe/London,0,4,910GRAYNSPK,0
9100MOTSPRP2,Motspur Park (Platform 2),51.3948747,-0.2396076,MOT,MOTSPRP,,Europe/London,2,2,910GMOTSPRP,0
9100WRCSTRP2,Worcester Park (Platform 2),51.3814192,-0.244985,WCP,WRCSTRP,,Europe/London,1,2,910GWRCSTRP,0
9100STLEIGH2,Stoneleigh (Platform 2),51.3638988,-0.2479641,SNL,STLEIGH,,Europe/London,2,2,910GSTLEIGH,0
9100EWELW2,Ewell West (Platform 2),51.3501115,-0.257131,EWW,EWELW,,Europe/London,1,2,910GEWELW,0
9100ASHD2,Ashtead (Platform 2),51.3179225,-0.3073912,AHD,ASHD,,Europe/London,0,2,910GASHD,0
9100BOOKHAM2,Bookham (Platform 2),51.2888353,-0.3838753,BKA,BOOKHAM,,Europe/London,0,2,910GBOOKHAM,0
9100EFNGHMJ2,Effingham Junction (Platform 2),51.2912974,-0.4200621,EFF,EFNGHMJ,,Europe/London,0,2,910GEFNGHMJ,0
9100HRSLEY2,Horsley (Platform 2),51.2795154,-0.4352969,HSY,HRSLEY,,Europe/London,0,2,910GHRSLEY,0
9100CLANDON2,Clandon (Platform 2),51.2640346,-0.5028629,CLA,CLANDON,,Europe/London,0,2,910GCLANDON,0
9100LRDGFD2,London Road (Guildford) (Platform 2),51.2407385,-0.565161,LRD,LRDGFD,,Europe/London,0,2,910GLRDGFD,0
9100KIDSGRV2,Kidsgrove (Platform 2),53.0864206,-2.244923,KDG,KIDSGRV,,Europe/London,0,2,910GKIDSGRV,0
9100CONGLTN2,Congleton (Platform 2),53.1577982,-2.1924594,CNG,CONGLTN,,Europe/London,0,2,910GCONGLTN,0
9100PSBY2,Prestbury (Platform 2),53.2931107,-2.1453161,PRB,PSBY,,Europe/London,0,2,910GPSBY,0
9100ADLC2,Adlington (Cheshire) (Platform 2),53.3197238,-2.1336443,ADC,ADLC,,Europe/London,0,2,910GADLC,0
9100POYNTON2,Poynton (Platform 2),53.3505513,-2.134793,PYT,POYNTON,,Europe/London,0,2,910GPOYNTON,0
9100BMHL1,Bramhall (Platform 1),53.3601721,-2.1623117,BML,BMHL,,Europe/London,0,1,910GBMHL,0
9100STAMFD2,Stamford (Lincs) (Platform 2),52.647832,-0.4800873,SMD,STAMFD,,Europe/London,2,2,910GSTAMFD,0
9100OAKHAM2,Oakham (Platform 2),52.6722903,-0.7343447,OKM,OAKHAM,,Europe/London,0,2,910GOAKHAM,0
9100MLTNSDG2,Melton Mowbray (Platform 2),52.7610228,-0.8857875,MMO,MLTNSDG,,Europe/London,0,2,910GMLTNSDG,0
9100NUTFILD2,Nutfield (Platform 2),51.2267445,-0.1322636,NUF,NUTFILD,,Europe/London,0,2,910GNUTFILD,0
9100GODSTON2,Godstone (Platform 2),51.2181855,-0.0514363,GDN,GODSTON,,Europe/London,0,2,910GGODSTON,0
9100EDNB2,Edenbridge (Kent) (Platform 2),51.2083661,0.0598637,EBR,EDNB,,Europe/London,0,2,910GEDNB,0
9100PNSHRST2,Penshurst (Platform 2),51.1972229,0.1734867,PHR,PNSHRST,,Europe/London,0,2,910GPNSHRST,0
9100LEIGHK2,Leigh (Kent) (Platform 2),51.1939929,0.2112588,LIH,LEIGHK,,Europe/London,0,2,910GLEIGHK,0
9100BRUNDLG2,Brundall Gardens (Platform 2),52.6233603,1.4181588,BGA,BRUNDLG,,Europe/London,0,2,910GBRUNDLG,0
9100BRUNDAL2,Brundall (Platform 2),52.6196558,1.4386558,BDA,BRUNDAL,,Europe/London,0,2,910GBRUNDAL,0
9100LGWOOD1,Lingwood (Platform 1),52.6220505,1.4896908,LGD,LGWOOD,,Europe/London,1,1,910GLGWOOD,0
9100SINGER1,Singer (Platform 1),55.9074847,-4.4054997,SIN,SINGER,,Europe/London,0,1,910GSINGER,0
9100DRUMRY1,Drumry (Platform 1),55.904597,-4.3854827,DMY,DRUMRY,,Europe/London,0,1,910GDRUMRY,0
9100DRMCHPL1,Drumchapel (Platform 1),55.9047342,-4.363032,DMC,DRMCHPL,,Europe/London,0,1,910GDRMCHPL,0
9100HAMLTNW2,Hamilton West (Platform 2),55.779188,-4.0552899,HNW,HAMLTNW,,Europe/London,0,2,910GHAMLTNW,0
9100HAMLTNC2,Hamilton Central (Platform 2),55.7731462,-4.0388235,HNC,HAMLTNC,,Europe/London,1,2,910GHAMLTNC,0
9100CHTLRT1,Chatelherault (Platform 1),55.7653766,-4.0046108,CTE,CHTLRT,,Europe/London,1,1,910GCHTLRT,0
9100MRRYTON1,Merryton (Platform 1),55.7489261,-3.9774372,MEY,MRRYTON,,Europe/London,1,1,910GMRRYTON,0
9100TLBYTWN1,Tilbury Town (Platform 1),51.4624598,0.3538289,TIL,TLBYTWN,,Europe/London,1,1,910GTLBYTWN,0
9100RNHAME1,Rainham (Essex) (Platform 1),51.5167202,0.1906219,RNM,RNHAME,,Europe/London,1,1,910GRNHAME,0
9100DGNHMDC1,Dagenham Dock (Platform 1),51.5261414,0.1464225,DDK,DGNHMDC,,Europe/London,2,1,910GDGNHMDC,0
9100CBAY2,Colwyn Bay (Platform 2),53.2968237,-3.7258927,CWB,CBAY,,Europe/London,1,2,910GCBAY,0
9100PSTA1,Prestatyn (Platform 1),53.3362293,-3.4073552,PRT,PSTA,,Europe/London,1,1,910GPSTA,0
9100FLINT1,Flint (Platform 1),53.249742,-3.1322555,FLN,FLINT,,Europe/London,0,1,910GFLINT,0
9100HLFT1,Hillfoot (Platform 1),55.9203081,-4.3198851,HLF,HLFT,,Europe/London,0,1,910GHLFT,0
9100DUKEST2,Duke Street (Platform 2),55.8586363,-4.212665,DST,DUKEST,,Europe/London,0,2,910GDUKEST,0
9100ALXPD2,Alexandra Parade (Platform 2),55.8633135,-4.2106057,AXP,ALXPD,,Europe/London,2,2,910GALXPD,0
9100BNHL2,Barnhill (Platform 2),55.8777405,-4.2233317,BNL,BNHL,,Europe/London,0,2,910GBNHL,0
9100STRBDGT1,Stourbridge Town (Platform 1),52.4555918,-2.1418921,SBT,STRBDGT,,Europe/London,0,1,910GSTRBDGT,0
9100STRBDG11,Stourbridge Junction (Platform 1),52.4476157,-2.1340314,SBJ,STRBDG1,,Europe/London,0,1,910GSTRBDGJ,0
9100CHSSS1,Chessington South (Platform 1),51.35675,-0.308097,CSS,CHSSS,,Europe/London,0,1,910GCHSSS,0
9100CHSSN1,Chessington North (Platform 1),51.363982,-0.3007319,CSN,CHSSN,,Europe/London,2,1,910GCHSSN,0
9100TOLWTH1,Tolworth (Platform 1),51.3768746,-0.2794424,TOL,TOLWTH,,Europe/London,2,1,910GTOLWTH,0
9100MALDENM1,Malden Manor (Platform 1),51.3847246,-0.2612451,MAL,MALDENM,,Europe/London,2,1,910GMALDENM,0
9100MOTSPRP1,Motspur Park (Platform 1),51.3948747,-0.2396076,MOT,MOTSPRP,,Europe/London,2,1,910GMOTSPRP,0
9100RAYNSPK1,Raynes Park (Platform 1),51.408966,-0.23054,RAY,RAYNSPK,,Europe/London,0,1,910GRAYNSPK,0
9100DEPTFD2,Deptford (Platform 2),51.4789824,-0.0266353,DEP,DEPTFD,,Europe/London,1,2,910GDEPTFD,0
9100SBURY2,Southbury (Platform 2),51.6480314,-0.0526302,SBU,SBURY,,Europe/London,1,2,910GSBURY,0
9100TURKYST2,Turkey Street (Platform 2),51.6727314,-0.0471452,TUR,TURKYST,,Europe/London,2,2,910GTURKYST,0
9100THBLDSG2,Theobalds Grove (Platform 2),51.6919835,-0.0356103,TEO,THBLDSG,,Europe/London,2,2,910GTHBLDSG,0
9100CHESHNT3,Cheshunt (Platform 3),51.7027036,-0.0238695,CHN,CHESHNT,,Europe/London,0,3,910GCHESHNT,0
9100BRNHRST1,Barnehurst (Platform 1),51.4650212,0.1596467,BNH,BRNHRST,,Europe/London,0,1,910GBRNHRST,0
9100FALCNWD1,Falconwood (Platform 1),51.4592305,0.0793044,FCN,FALCNWD,,Europe/London,2,1,910GFALCNWD,0
9100KIDBROK1,Kidbrooke (Platform 1),51.4620317,0.0279002,KDB,KIDBROK,,Europe/London,0,1,910GKIDBROK,0
9100WARGRAV1,Wargrave (Platform 1),51.4985546,-0.8766558,WGV,WARGRAV,,Europe/London,1,1,910GWARGRAV,0
9100SHPLAKE1,Shiplake (Platform 1),51.5111653,-0.8824136,SHI,SHPLAKE,,Europe/London,1,1,910GSHPLAKE,0
9100HNLYOT1,Henley-on-Thames (Platform 1),51.5338451,-0.899422,HOT,HNLYOT,,Europe/London,1,1,910GHNLYOT,0
9100GDLMING2,Godalming (Platform 2),51.1865224,-0.6189563,GOD,GDLMING,,Europe/London,1,2,910GGDLMING,0
9100BCKNMJC1,Beckenham Junction (Platform 1),51.4110623,-0.0259866,BKJ,BCKNMJC,,Europe/London,0,1,910GBCKNHMJ,0
9100BIRKBCK1,Birkbeck (Platform 1),51.4034563,-0.0565394,BIK,BIRKBCK,,Europe/London,2,1,910GBIRKBCK,0
9100NDULWCH1,North Dulwich (Platform 1),51.4541783,-0.0883292,NDL,NDULWCH,,Europe/London,2,1,910GNDULWCH,0
9100EDULWCH1,East Dulwich (Platform 1),51.4610374,-0.0807982,EDW,EDULWCH,,Europe/London,0,1,910GEDULWCH,0
9100HOOK1,Hook (Platform 1),51.2798793,-0.9614163,HOK,HOOK,,Europe/London,0,1,910GHOOK,0
9100WNCFILD1,Winchfield (Platform 1),51.2847339,-0.9070163,WNF,WNCFILD,,Europe/London,0,1,910GWNCFILD,0
9100FLEET1,Fleet (Platform 1),51.2906158,-0.8313789,FLE,FLEET,,Europe/London,1,1,910GFLEET,0
9100BRKWOOD1,Brookwood (Platform 1),51.3035819,-0.6359925,BKO,BRKWOOD,,Europe/London,0,1,910GBRKWOOD,0
9100WONT1,Walton-on-Thames (Platform 1),51.3729077,-0.4143441,WAL,WONT,,Europe/London,0,1,910GWONT,0
9100HNCHLYW2,Hinchley Wood (Platform 2),51.3750646,-0.3406341,HYW,HNCHLYW,,Europe/London,2,2,910GHNCHLYW,0
9100CLYGATE2,Claygate (Platform 2),51.3610578,-0.3484109,CLG,CLYGATE,,Europe/London,0,2,910GCLYGATE,0
9100OXSHOTT2,Oxshott (Platform 2),51.3361004,-0.3625418,OXS,OXSHOTT,,Europe/London,0,2,910GOXSHOTT,0
9100CBHMSDA2,Cobham & Stoke d'Abernon (Platform 2),51.3179185,-0.3894128,CSD,CBHMSDA,,Europe/London,0,2,910GCBHMSDA,0
9100STANMFC1,Stansted Mountfitchet (Platform 1),51.9012727,0.1992411,SST,STANMFC,,Europe/London,0,1,910GSTANMFC,0
9100TTNHMHL1,Tottenham Hale (Platform 1),51.5881223,-0.0599366,TOM,TTNHMHL,,Europe/London,1,1,910GTTNHMHL,0
9100BRYN2,Bryn (Platform 2),53.4997249,-2.6476163,BYN,BRYN,,Europe/London,2,2,910GBRYN,0
9100GARW2,Garswood (Platform 2),53.4880481,-2.6719929,GSW,GARW,,Europe/London,0,2,910GGARW,0
9100THHT2,Thatto Heath (Platform 2),53.4366896,-2.7594696,THH,THHT,,Europe/London,0,2,910GTHHT,0
9100ECPK2,Eccleston Park (Platform 2),53.4307355,-2.7803346,ECL,ECPK,,Europe/London,0,2,910GECPK,0
9100PRESCOT2,Prescot (Platform 2),53.4235274,-2.7989869,PSC,PRESCOT,,Europe/London,1,2,910GPRESCOT,0
9100DGNHMDC2,Dagenham Dock (Platform 2),51.5261414,0.1464225,DDK,DGNHMDC,,Europe/London,2,2,910GDGNHMDC,0
9100RNHAME2,Rainham (Essex) (Platform 2),51.5167202,0.1906219,RNM,RNHAME,,Europe/London,1,2,910GRNHAME,0
9100SAXILBY2,Saxilby (Platform 2),53.267314,-0.6645836,SXY,SAXILBY,,Europe/London,1,2,910GSAXILBY,0
9100GBGHLRD2,Gainsborough Lea Road (Platform 2),53.3860875,-0.7693785,GBL,GBGHLRD,,Europe/London,0,2,910GGBGHLRD,0
9100SHRKSKS2,Shireoaks (Platform 2),53.3248638,-1.1683224,SRO,SHRKSKS,,Europe/London,0,2,910GSHRKSKS,0
9100KVTNPK2,Kiveton Park (Platform 2),53.3367636,-1.2395678,KVP,KVTNPK,,Europe/London,0,2,910GKVTNPK,0
9100KVTNBDG2,Kiveton Bridge (Platform 2),53.3409362,-1.2670815,KIV,KVTNBDG,,Europe/London,1,2,910GKVTNBDG,0
9100WDHOUSE2,Woodhouse (Platform 2),53.3637962,-1.3573689,WDH,WDHOUSE,,Europe/London,0,2,910GWDHOUSE,0
9100DARNALL2,Darnall (Platform 2),53.3845451,-1.4123572,DAN,DARNALL,,Europe/London,1,2,910GDARNALL,0
9100SEERGRN1,Seer Green & Jordans (Platform 1),51.6098754,-0.6080105,SRG,SEERGRN,,Europe/London,0,1,910GSEERGRN,0
9100PANGBRN1,Pangbourne (Platform 1),51.4853553,-1.0904319,PAN,PANGBRN,,Europe/London,0,1,910GPANGBRN,0
9100GORASTR3,Goring & Streatley (Platform 3),51.5211885,-1.1331195,GOR,GORASTR,,Europe/London,1,3,910GGORASTR,0
9100CHOLSEY3,Cholsey (Platform 3),51.5704082,-1.1586983,CHO,CHOLSEY,,Europe/London,2,3,910GCHOLSEY,0
9100WANDCMN1,Wandsworth Common (Platform 1),51.4461242,-0.1635168,WSW,WANDCMN,,Europe/London,0,1,910GWANDCMN,0
9100THTH1,Thornton Heath (Platform 1),51.3989438,-0.1005158,TTH,THTH,,Europe/London,1,1,910GTHTH,0
9100WADDON2,Waddon (Platform 2),51.3673338,-0.1174351,WDO,WADDON,,Europe/London,0,2,910GWADDON,0
9100CRSHLTB2,Carshalton Beeches (Platform 2),51.3571959,-0.1693507,CSB,CRSHLTB,,Europe/London,0,2,910GCRSHLTB,0
9100BELM1,Belmont (Platform 1),51.3438964,-0.1987852,BLM,BELM,,Europe/London,1,1,910GBELM,0
9100BANSTED1,Banstead (Platform 1),51.3294324,-0.2137196,BAD,BANSTED,,Europe/London,2,1,910GBANSTED,0
9100EPSDNS1,Epsom Downs (Platform 1),51.3242508,-0.2384351,EPD,EPSDNS,,Europe/London,1,1,910GEPSDNS,0
9100DATCHET1,Datchet (Platform 1),51.4828971,-0.5793863,DAT,DATCHET,,Europe/London,0,1,910GDATCHET,0
9100SUNYMDS1,Sunnymeads (Platform 1),51.4699493,-0.558857,SNY,SUNYMDS,,Europe/London,2,1,910GSUNYMDS,0
9100WRYSBRY1,Wraysbury (Platform 1),51.4579278,-0.541994,WRY,WRYSBRY,,Europe/London,0,1,910GWRYSBRY,0
9100ASFDMSX1,Ashford (Surrey) (Platform 1),51.436496,-0.4683126,AFS,ASFDMSX,,Europe/London,0,1,910GASFDMSX,0
9100WHTTON1,Whitton (London) (Platform 1),51.4494981,-0.3577822,WTN,WHTTON,,Europe/London,1,1,910GWHTTON,0
9100WHSTBLE2,Whitstable (Platform 2),51.3576861,1.0343648,WHI,WHSTBLE,,Europe/London,0,2,910GWHSTBLE,0
9100CHSW2,Chestfield & Swalecliffe (Platform 2),51.3602828,1.0674411,CSW,CHSW,,Europe/London,2,2,910GCHSW,0
9100BCNGNOS2,Birchington-on-Sea (Platform 2),51.3775024,1.3009038,BCH,BCNGNOS,,Europe/London,0,2,910GBCNGNOS,0
9100WESGTOS2,Westgate-on-Sea (Platform 2),51.3812842,1.3382306,WGA,WESGTOS,,Europe/London,0,2,910GWESGTOS,0
9100BRSR2,Broadstairs (Platform 2),51.360737,1.4334122,BSR,BRSR,,Europe/London,0,2,910GBRSR,0
9100DUMPTNP2,Dumpton Park (Platform 2),51.3458538,1.4252755,DMP,DUMPTNP,,Europe/London,2,2,910GDUMPTNP,0
9100PETSWD3,Petts Wood (Platform 3),51.388626,0.0745614,PET,PETSWD,,Europe/London,1,3,910GPETSWD,0
9100ELMW3,Elmstead Woods (Platform 3),51.4167981,0.0446574,ESD,ELMW,,Europe/London,0,3,910GELMW,0
9100WNOTLEY1,White Notley (Platform 1),51.8392682,0.595265,WNY,WNOTLEY,,Europe/London,0,1,910GWNOTLEY,0
9100CRESING1,Cressing (Essex) (Platform 1),51.8519489,0.578324,CES,CRESING,,Europe/London,0,1,910GCRESING,0
9100BRAINFP1,Braintree Freeport (Platform 1),51.8692939,0.5681965,BTP,BRAINFP,,Europe/London,1,1,910GBRAINFP,0
9100BRAINTR1,Braintree (Platform 1),51.8753105,0.5567303,BTR,BRAINTR,,Europe/London,1,1,910GBRAINTR,0
9100NWTH1,Newton for Hyde (Platform 1),53.4567001,-2.067531,NWN,NWTH,,Europe/London,2,1,910GNWTH,0
9100GODLY1,Godley (Platform 1),53.4523506,-2.0558149,GDL,GODLY,,Europe/London,2,1,910GGODLY,0
9100HATRSLY1,Hattersley (Platform 1),53.445183,-2.0399051,HTY,HATRSLY,,Europe/London,2,1,910GHATRSLY,0
9100BRBM1,Broadbottom (Platform 1),53.4408091,-2.0163275,BDB,BRBM,,Europe/London,0,1,910GBRBM,0
9100THBLDSG1,Theobalds Grove (Platform 1),51.6919835,-0.0356103,TEO,THBLDSG,,Europe/London,2,1,910GTHBLDSG,0
9100TURKYST1,Turkey Street (Platform 1),51.6727314,-0.0471452,TUR,TURKYST,,Europe/London,2,1,910GTURKYST,0
9100SBURY1,Southbury (Platform 1),51.6480314,-0.0526302,SBU,SBURY,,Europe/London,1,1,910GSBURY,0
9100EDMNGRN1,Edmonton Green (Platform 1),51.624503,-0.0614266,EDR,EDMNGRN,,Europe/London,1,1,910GEDMNGRN,0
9100SIVRST1,Silver Street (Platform 1),51.6152771,-0.0668979,SLV,SIVRST,,Europe/London,1,1,910GSIVRST,0
9100WHHRTLA1,White Hart Lane (Platform 1),51.6045787,-0.0707508,WHL,WHHRTLA,,Europe/London,1,1,910GWHHRTLA,0
9100BRUCGRV1,Bruce Grove (Platform 1),51.5937122,-0.070011,BCV,BRUCGRV,,Europe/London,2,1,910GBRUCGRV,0
9100STMFDHL1,Stamford Hill (Platform 1),51.5748867,-0.0762903,SMH,STMFDHL,,Europe/London,2,1,910GSTMFDHL,0
9100STKNWNG1,Stoke Newington (Platform 1),51.5651868,-0.0727844,SKW,STKNWNG,,Europe/London,2,1,910GSTKNWNG,0
9100RCTRYRD1,Rectory Road (Platform 1),51.5591049,-0.0686408,REC,RCTRYRD,,Europe/London,1,1,910GRCTRYRD,0
9100CAMHTH1,Cambridge Heath (Platform 1),51.5319544,-0.0574215,CBH,CAMHTH,,Europe/London,2,1,910GCAMHTH,0
9100LNGBKBY1,Long Buckby (Platform 1),52.2944171,-1.0860534,LBK,LNGBKBY,,Europe/London,2,1,910GLNGBKBY,0
9100WARNHAM1,Warnham (Platform 1),51.0930387,-0.3296073,WNH,WARNHAM,,Europe/London,0,1,910GWARNHAM,0
9100OCKLYAC1,Ockley (Platform 1),51.1515691,-0.3361686,OLY,OCKLYAC,,Europe/London,0,1,910GOCKLYAC,0
9100HLMW1,Holmwood (Platform 1),51.1811282,-0.320874,HLM,HLMW,,Europe/London,0,1,910GHLMW,0
9100BOXHAWH1,Box Hill & Westhumble (Platform 1),51.2539871,-0.3286723,BXW,BOXHAWH,,Europe/London,0,1,910GBOXHAWH,0
9100ASHD1,Ashtead (Platform 1),51.3179225,-0.3073912,AHD,ASHD,,Europe/London,0,1,910GASHD,0
9100EWELLE1,Ewell East (Platform 1),51.3452926,-0.2412882,EWE,EWELLE,,Europe/London,0,1,910GEWELLE,0
9100CHEAM1,Cheam (Platform 1),51.3556609,-0.2145128,CHE,CHEAM,,Europe/London,0,1,910GCHEAM,0
9100CRSHLTN1,Carshalton (Platform 1),51.3685771,-0.1663814,CSH,CRSHLTN,,Europe/London,1,1,910GCRSHLTN,0
9100HKBG1,Hackbridge (Platform 1),51.3780278,-0.1537197,HCB,HKBG,,Europe/London,0,1,910GHKBG,0
9100MITCHMJ1,Mitcham Junction (Platform 1),51.392945,-0.1577774,MIJ,MITCHMJ,,Europe/London,0,1,910GMITCHMJ,0
9100ESTFLDS1,Mitcham Eastfields (Platform 1),51.4073954,-0.154872,MTC,ESTFLDS,,Europe/London,0,1,910GESTFLDS,0
9100WLWYNN2,Welwyn North (Platform 2),51.8237723,-0.192134,WLW,WLWYNN,,Europe/London,0,2,910GWLWYNN,0
9100ASHWELC2,Ashwell & Morden (Platform 2),52.0306258,-0.1099212,AWM,ASHWELC,,Europe/London,2,2,910GASHWELC,0
9100MELDRTH2,Meldreth (Platform 2),52.0908316,0.0091415,MEL,MELDRTH,,Europe/London,0,2,910GMELDRTH,0
9100SHPRTH2,Shepreth (Platform 2),52.114457,0.0316482,STH,SHPRTH,,Europe/London,0,2,910GSHPRTH,0
9100FOXTON2,Foxton (Platform 2),52.1193575,0.0569774,FXN,FOXTON,,Europe/London,0,2,910GFOXTON,0
9100CHSRD2,Chester Road (Platform 2),52.5357946,-1.8324576,CRD,CHSRD,,Europe/London,0,2,910GCHSRD,0
9100ERDNGTN1,Erdington (Platform 1),52.5285663,-1.8392253,ERD,ERDNGTN,,Europe/London,0,1,910GERDNGTN,0
9100GRAVLYH1,Gravelly Hill (Platform 1),52.5153876,-1.8527077,GVH,GRAVLYH,,Europe/London,0,1,910GGRAVLYH,0
9100SELYOAK2,Selly Oak (Platform 2),52.4418625,-1.9355913,SLY,SELYOAK,,Europe/London,0,2,910GSELYOAK,0
9100BOURNVL2,Bournville (Platform 2),52.4273889,-1.9266683,BRV,BOURNVL,,Europe/London,0,2,910GBOURNVL,0
9100KNORTON4,Kings Norton (Platform 4),52.4142407,-1.932615,KNN,KNORTON,,Europe/London,0,4,910GKNORTON,0
9100NRTF4,Northfield (Platform 4),52.4082951,-1.9651246,NFD,NRTF,,Europe/London,0,4,910GNRTF,0
9100RDIT1,Redditch (Platform 1),52.3063807,-1.9456089,RDC,RDIT,,Europe/London,0,1,910GRDIT,0
9100BILERCY2,Billericay (Platform 2),51.6288429,0.4181268,BIC,BILERCY,,Europe/London,1,2,910GBILERCY,0
9100RAYLEGH2,Rayleigh (Platform 2),51.5894866,0.6002479,RLG,RAYLEGH,,Europe/London,0,2,910GRAYLEGH,0
9100DRONFLD1,Dronfield (Platform 1),53.3014,-1.4692529,DRO,DRONFLD,,Europe/London,0,1,910GDRONFLD,0
9100ALFRETN2,Alfreton (Platform 2),53.1010582,-1.3698401,ALF,ALFRETN,,Europe/London,0,2,910GALFRETN,0
9100HNDSHWT1,The Hawthorns (Platform 1),52.5055248,-1.964545,THW,HNDSHWT,,Europe/London,0,1,910GHNDSHWT,0
9100ROWLEYR2,Rowley Regis (Platform 2),52.4774198,-2.0308221,ROW,ROWLEYR,,Europe/London,0,2,910GROWLEYR,0
9100CRADLYH2,Cradley Heath (Platform 2),52.4694408,-2.0906252,CRA,CRADLYH,,Europe/London,0,2,910GCRADLYH,0
9100HAGLEY1,Hagley (Platform 1),52.4224267,-2.1465358,HAG,HAGLEY,,Europe/London,0,1,910GHAGLEY,0
9100BLAKEDN1,Blakedown (Platform 1),52.4064788,-2.1767711,BKD,BLAKEDN,,Europe/London,0,1,910GBLAKEDN,0
9100HBRY2,Hartlebury (Platform 2),52.3344413,-2.2210855,HBY,HBRY,,Europe/London,0,2,910GHBRY,0
9100DRTWCHS1,Droitwich Spa (Platform 1),52.2683805,-2.1583391,DTW,DRTWCHS,,Europe/London,0,1,910GDRTWCHS,0
9100CHELFD2,Chelford (Cheshire) (Platform 2),53.2704221,-2.2804386,CEL,CHELFD,,Europe/London,0,2,910GCHELFD,0
9100GOOSTRY2,Goostrey (Platform 2),53.2225699,-2.3263394,GTR,GOOSTRY,,Europe/London,0,2,910GGOOSTRY,0
9100HCHP1,Holmes Chapel (Platform 1),53.1992752,-2.3511004,HCH,HCHP,,Europe/London,0,1,910GHCHP,0
9100EDULWCH2,East Dulwich (Platform 2),51.4610374,-0.0807982,EDW,EDULWCH,,Europe/London,0,2,910GEDULWCH,0
9100NDULWCH2,North Dulwich (Platform 2),51.4541783,-0.0883292,NDL,NDULWCH,,Europe/London,2,2,910GNDULWCH,0
9100GIPSYH2,Gipsy Hill (Platform 2),51.4245334,-0.0840424,GIP,GIPSYH,,Europe/London,0,2,910GGIPSYH,0
9100ACBG2,Acton Bridge (Cheshire) (Platform 2),53.2662973,-2.602769,ACB,ACBG,,Europe/London,2,2,910GACBG,0
9100HARTFD1,Hartford (Cheshire) (Platform 1),53.241569,-2.553519,HTF,HARTFD,,Europe/London,0,1,910GHARTFD,0
9100WNSFD1,Winsford (Platform 1),53.1904159,-2.4943089,WSF,WNSFD,,Europe/London,0,1,910GWNSFD,0
9100PNKRDG2,Penkridge (Platform 2),52.7236965,-2.1193938,PKG,PNKRDG,,Europe/London,0,2,910GPNKRDG,0
9100GALTILL4,Smethwick Galton Bridge (Platform 4),52.5021195,-1.9804372,SGB,GALTILL,,Europe/London,0,4,910GGALTILL,0
9100DORMANS1,Dormans (Platform 1),51.1558675,-0.0042265,DMS,DORMANS,,Europe/London,0,1,910GDORMANS,0
9100LINGFLD1,Lingfield (Platform 1),51.1761001,-0.0068029,LFD,LINGFLD,,Europe/London,0,1,910GLINGFLD,0
9100RDLSDWN1,Riddlesdown (Platform 1),51.3329352,-0.0997037,RDD,RDLSDWN,,Europe/London,0,1,910GRDLSDWN,0
9100SDSD1,Sanderstead (Platform 1),51.348394,-0.0934589,SNR,SDSD,,Europe/London,0,1,910GSDSD,0
9100SEAFORD1,Seaford (Sussex) (Platform 1),50.7729203,0.1000064,SEF,SEAFORD,,Europe/London,1,1,910GSEAFORD,0
9100BICKLEY1,Bickley (Platform 1),51.4000641,0.0443369,BKL,BICKLEY,,Europe/London,2,1,910GBICKLEY,0
9100SHRTLND1,Shortlands (Platform 1),51.4059051,0.0021679,SRT,SHRTLND,,Europe/London,2,1,910GSHRTLND,0
9100BCKNHMJ2,Beckenham Junction (Platform 2),51.4110623,-0.0259866,BKJ,BCKNHMJ,,Europe/London,0,2,910GBCKNHMJ,0
9100PNGEE1,Penge East (Platform 1),51.4193151,-0.0541364,PNE,PNGEE,,Europe/London,0,1,910GPNGEE,0
9100SYDNHMH1,Sydenham Hill (Platform 1),51.4326101,-0.0801504,SYH,SYDNHMH,,Europe/London,2,1,910GSYDNHMH,0
9100WDULWCH1,West Dulwich (Platform 1),51.4402849,-0.0908906,WDU,WDULWCH,,Europe/London,2,1,910GWDULWCH,0
9100BRIXTON1,Brixton (Platform 1),51.4628953,-0.1133473,BRX,BRIXTON,,Europe/London,2,1,910GBRIXTON,0
9100CXTN2,Cuxton (Platform 2),51.373911,0.461982,CUX,CXTN,,Europe/London,0,2,910GCXTN,0
9100HALG2,Halling (Platform 2),51.3523741,0.4451218,HAI,HALG,,Europe/London,0,2,910GHALG,0
9100SNODLND2,Snodland (Platform 2),51.3302228,0.4484399,SDA,SNODLND,,Europe/London,0,2,910GSNODLND,0
9100NWHYTHE2,New Hythe (Platform 2),51.3128389,0.4551387,NHE,NWHYTHE,,Europe/London,0,2,910GNWHYTHE,0
9100AYLESFD2,Aylesford (Platform 2),51.3015328,0.4657666,AYL,AYLESFD,,Europe/London,0,2,910GAYLESFD,0
9100MSTONEB2,Maidstone Barracks (Platform 2),51.2770433,0.5141731,MDB,MSTONEB,,Europe/London,2,2,910GMSTONEB,0
9100EFARLGH1,East Farleigh (Platform 1),51.2552513,0.4844783,EFL,EFARLGH,,Europe/London,0,1,910GEFARLGH,0
9100WTRNGBY1,Wateringbury (Platform 1),51.2496596,0.4222989,WTR,WTRNGBY,,Europe/London,0,1,910GWTRNGBY,0
9100YALDING1,Yalding (Platform 1),51.2266654,0.4121616,YAL,YALDING,,Europe/London,0,1,910GYALDING,0
9100BLTRNAB1,Beltring (Platform 1),51.2045463,0.4033747,BEG,BLTRNAB,,Europe/London,0,1,910GBLTRNAB,0
9100FOXTON1,Foxton (Platform 1),52.1193575,0.0569774,FXN,FOXTON,,Europe/London,0,1,910GFOXTON,0
9100SHPRTH1,Shepreth (Platform 1),52.114457,0.0316482,STH,SHPRTH,,Europe/London,0,1,910GSHPRTH,0
9100MELDRTH1,Meldreth (Platform 1),52.0908316,0.0091415,MEL,MELDRTH,,Europe/London,0,1,910GMELDRTH,0
9100WLWYNN1,Welwyn North (Platform 1),51.8237723,-0.192134,WLW,WLWYNN,,Europe/London,0,1,910GWLWYNN,0
9100SUDBURY1,Sudbury (Suffolk) (Platform 1),52.0362647,0.7355732,SUY,SUDBURY,,Europe/London,1,1,910GSUDBURY,0
9100BURES1,Bures (Platform 1),51.9712052,0.7691268,BUE,BURES,,Europe/London,0,1,910GBURES,0
9100CHPWKSC1,Chappel & Wakes Colne (Platform 1),51.9258987,0.7586045,CWC,CHPWKSC,,Europe/London,0,1,910GCHPWKSC,0
9100WDNYMNR2,Widney Manor (Platform 2),52.3962802,-1.7743426,WMR,WDNYMNR,,Europe/London,0,2,910GWDNYMNR,0
9100SOLIHUL2,Solihull (Platform 2),52.4146286,-1.7888672,SOL,SOLIHUL,,Europe/London,1,2,910GSOLIHUL,0
9100OLTON1,Olton (Platform 1),52.4384167,-1.804385,OLT,OLTON,,Europe/London,0,1,910GOLTON,0
9100ACOCKSG1,Acocks Green (Platform 1),52.4495299,-1.8192378,ACG,ACOCKSG,,Europe/London,0,1,910GACOCKSG,0
9100SWINTN1,Swinton (South Yorks) (Platform 1),53.4855977,-1.3056214,SWN,SWINTN,,Europe/London,1,1,910GSWINTN,0
9100MEXBRGH2,Mexborough (Platform 2),53.4908309,-1.2885249,MEX,MEXBRGH,,Europe/London,1,2,910GMEXBRGH,0
9100CONBRGH2,Conisbrough (Platform 2),53.4895257,-1.23461,CNS,CONBRGH,,Europe/London,0,2,910GCONBRGH,0
9100RAYNSPK3,Raynes Park (Platform 3),51.408966,-0.23054,RAY,RAYNSPK,,Europe/London,0,3,910GRAYNSPK,0
9100NEWMLDN4,New Malden (Platform 4),51.4039615,-0.2557593,NEM,NEWMLDN,,Europe/London,0,4,910GNEWMLDN,0
9100BRLANDS2,Berrylands (Platform 2),51.3990081,-0.2809105,BRS,BRLANDS,,Europe/London,2,2,910GBRLANDS,0
9100COLSDNS2,Coulsdon South (Platform 2),51.315543,-0.137974,CDS,COLSDNS,,Europe/London,1,2,910GCOLSDNS,0
9100MERSTHM2,Merstham (Platform 2),51.2641687,-0.150065,MHM,MERSTHM,,Europe/London,0,2,910GMERSTHM,0
9100REIGATE2,Reigate (Platform 2),51.2418815,-0.2038369,REI,REIGATE,,Europe/London,0,2,910GREIGATE,0
9100CLYBANK1,Clydebank (Platform 1),55.9005667,-4.4041552,CYK,CLYBANK,,Europe/London,0,1,910GCLYBANK,0
9100YOKER1,Yoker (Platform 1),55.8925796,-4.3863668,YOK,YOKER,,Europe/London,0,1,910GYOKER,0
9100SCTSTNH1,Scotstounhill (Platform 1),55.8850022,-4.3529637,SCH,SCTSTNH,,Europe/London,0,1,910GSCTSTNH,0
9100JORDANH1,Jordanhill (Platform 1),55.8826725,-4.3249413,JOR,JORDANH,,Europe/London,0,1,910GJORDANH,0
9100ARGYLST2,Argyle Street (Platform 2),55.8576091,-4.2506187,AGS,ARGYLST,,Europe/London,2,2,910GARGYLST,0
9100BRIDGTN2,Bridgeton (Platform 2),55.8483262,-4.2248178,BDG,BRIDGTN,,Europe/London,2,2,910GBRIDGTN,0
9100DLMRNOK2,Dalmarnock (Platform 2),55.8421847,-4.2174709,DAK,DLMRNOK,,Europe/London,1,2,910GDLMRNOK,0
9100LENZIE2,Lenzie (Platform 2),55.9213422,-4.1539264,LNZ,LENZIE,,Europe/London,0,2,910GLENZIE,0
9100UPTON2,Upton (Merseyside) (Platform 2),53.3864458,-3.0841027,UPT,UPTON,,Europe/London,0,2,910GUPTON,0
9100HESWALL2,Heswall (Platform 2),53.3296559,-3.0733389,HSW,HESWALL,,Europe/London,0,2,910GHESWALL,0
9100NESTON2,Neston (Platform 2),53.2917321,-3.062958,NES,NESTON,,Europe/London,0,2,910GNESTON,0
9100HAWDNBG1,Hawarden Bridge (Platform 1),53.2181055,-3.0323456,HWB,HAWDNBG,,Europe/London,0,1,910GHAWDNBG,0
9100SHOTTHL4,Shotton (Platform 4),53.2125372,-3.0383059,SHT,SHOTTHL,,Europe/London,0,4,910GSHOTTON,0
9100HAWARDN2,Hawarden (Platform 2),53.1848468,-3.0320721,HWD,HAWARDN,,Europe/London,0,2,910GHAWARDN,0
9100BCKY2,Buckley (Platform 2),53.1625354,-3.0551852,BCK,BCKY,,Europe/London,0,2,910GBCKY,0
9100PNYF2,Penyffordd (Platform 2),53.1427065,-3.0548121,PNF,PNYF,,Europe/London,0,2,910GPNYF,0
9100HOPC2,Hope (Flintshire) (Platform 2),53.1168595,-3.0372474,HPE,HOPC,,Europe/London,0,2,910GHOPC,0
9100CAERGWL2,Caergwrle (Platform 2),53.1080896,-3.0332375,CGW,CAERGWL,,Europe/London,0,2,910GCAERGWL,0
9100CEFNYBD2,Cefn-y-Bedd (Platform 2),53.0988378,-3.0308499,CYB,CEFNYBD,,Europe/London,0,2,910GCEFNYBD,0
9100GWRSYLT2,Gwersyllt (Platform 2),53.0727884,-3.0176175,GWE,GWRSYLT,,Europe/London,0,2,910GGWRSYLT,0
9100ROBY2,Roby (Platform 2),53.4100591,-2.8555038,ROB,ROBY,,Europe/London,1,2,910GROBY,0
9100BROADGR2,Broad Green (Platform 2),53.4065083,-2.8933889,BGE,BROADGR,,Europe/London,0,2,910GBROADGR,0
9100BHILLPK1,Bush Hill Park (Platform 1),51.6417042,-0.0694005,BHK,BHILLPK,,Europe/London,0,1,910GBHILLPK,0
9100RHIL2,Rainhill (Platform 2),53.4172066,-2.7662934,RNH,RHIL,,Europe/London,0,2,910GRHIL,0
9100LAZKRKO1,Lazonby & Kirkoswald (Platform 1),54.7508153,-2.7036908,LZB,LAZKRKO,,Europe/London,0,1,910GLAZKRKO,0
9100APBY1,Appleby (Platform 1),54.58041,-2.486536,APP,APBY,,Europe/London,0,1,910GAPBY,0
9100SETTLE1,Settle (Platform 1),54.0669551,-2.2808342,SET,SETTLE,,Europe/London,0,1,910GSETTLE,0
9100LPRESTN1,Long Preston (Platform 1),54.0166575,-2.2551519,LPR,LPRESTN,,Europe/London,0,1,910GLPRESTN,0
9100THLB2,Thornliebank (Platform 2),55.8110635,-4.3117213,THB,THLB,,Europe/London,0,2,910GTHLB,0
9100GIFNOCK2,Giffnock (Platform 2),55.8041667,-4.2930578,GFN,GIFNOCK,,Europe/London,0,2,910GGIFNOCK,0
9100CLRKSTN2,Clarkston (Platform 2),55.7895219,-4.2757187,CKS,CLRKSTN,,Europe/London,0,2,910GCLRKSTN,0
9100BUSBY2,Busby (Platform 2),55.7803927,-4.2622278,BUS,BUSBY,,Europe/London,0,2,910GBUSBY,0
9100TOOTING2,Tooting (Platform 2),51.4198567,-0.1613148,TOO,TOOTING,,Europe/London,2,2,910GTOOTING,0
9100HYDNSRD2,Haydons Road (Platform 2),51.4253627,-0.1883425,HYR,HYDNSRD,,Europe/London,0,2,910GHYDNSRD,0
9100WIMLCHS2,Wimbledon Chase (Platform 2),51.410247,-0.2147881,WBO,WIMLCHS,,Europe/London,2,2,910GWIMLCHS,0
9100SMERTON2,South Merton (Platform 2),51.4033264,-0.2055176,SMO,SMERTON,,Europe/London,2,2,910GSMERTON,0
9100MORDENS2,Morden South (Platform 2),51.395678,-0.1992399,MDS,MORDENS,,Europe/London,2,2,910GMORDENS,0
9100WHTTON2,Whitton (London) (Platform 2),51.4494981,-0.3577822,WTN,WHTTON,,Europe/London,1,2,910GWHTTON,0
9100WRYSBRY2,Wraysbury (Platform 2),51.4579278,-0.541994,WRY,WRYSBRY,,Europe/London,0,2,910GWRYSBRY,0
9100SUNYMDS2,Sunnymeads (Platform 2),51.4699493,-0.558857,SNY,SUNYMDS,,Europe/London,2,2,910GSUNYMDS,0
9100DATCHET2,Datchet (Platform 2),51.4828971,-0.5793863,DAT,DATCHET,,Europe/London,0,2,910GDATCHET,0
9100SHEPRTN1,Shepperton (Platform 1),51.3968972,-0.4469133,SHP,SHEPRTN,,Europe/London,1,1,910GSHEPRTN,0
9100UHALIFD1,Upper Halliford (Platform 1),51.4132081,-0.4307971,UPH,UHALIFD,,Europe/London,0,1,910GUHALIFD,0
9100SUNBURY1,Sunbury (Platform 1),51.418324,-0.4173517,SUU,SUNBURY,,Europe/London,0,1,910GSUNBURY,0
9100KMPTNPK1,Kempton Park (Platform 1),51.4210039,-0.4094874,KMP,KMPTNPK,,Europe/London,0,1,910GKMPTNPK,0
9100HAMPTON1,Hampton (London) (Platform 1),51.4159079,-0.3721547,HMP,HAMPTON,,Europe/London,0,1,910GHAMPTON,0
9100FULWELL1,Fulwell (Platform 1),51.4337598,-0.3496851,FLW,FULWELL,,Europe/London,2,1,910GFULWELL,0
9100LLNWTMR1,Llantwit Major (Platform 1),51.4096499,-3.4814284,LWM,LLNWTMR,,Europe/London,0,1,910GLLNWTMR,0
9100RHOOSE1,Rhoose Cardiff International Airport (Platform 1),51.3871547,-3.3494457,RIA,RHOOSE,,Europe/London,0,1,910GRHOOSE,0
9100DINASP1,Dinas Powys (Platform 1),51.4312453,-3.219062,DNS,DINASP,,Europe/London,0,1,910GDINASP,0
9100EASTBRK1,Eastbrook (Platform 1),51.4378361,-3.2062588,EBK,EASTBRK,,Europe/London,0,1,910GEASTBRK,0
9100COGAN1,Cogan (Platform 1),51.4458142,-3.1893329,CGN,COGAN,,Europe/London,0,1,910GCOGAN,0
9100GNTN1,Grangetown (Cardiff) (Platform 1),51.4672525,-3.1895595,GTN,GNTN,,Europe/London,2,1,910GGNTN,0
9100CHEAM2,Cheam (Platform 2),51.3556609,-0.2145128,CHE,CHEAM,,Europe/London,0,2,910GCHEAM,0
9100EWELLE2,Ewell East (Platform 2),51.3452926,-0.2412882,EWE,EWELLE,,Europe/London,0,2,910GEWELLE,0
9100WARE1,Ware (Herts) (Platform 1),51.8080948,-0.0295377,WAR,WARE,,Europe/London,1,1,910GWARE,0
9100SMARGRT1,St Margarets (Herts) (Platform 1),51.7879595,0.0010843,SMT,SMARGRT,,Europe/London,1,1,910GSMARGRT,0
9100RYEHOUS1,Rye House (Platform 1),51.7693606,0.0055296,RYH,RYEHOUS,,Europe/London,0,1,910GRYEHOUS,0
9100ENFLDLK1,Enfield Lock (Platform 1),51.6706124,-0.0286058,ENL,ENFLDLK,,Europe/London,0,1,910GENFLDLK,0
9100BRIMSDN1,Brimsdown (Platform 1),51.6555713,-0.0308093,BMD,BRIMSDN,,Europe/London,0,1,910GBRIMSDN,0
9100PNDRSEN1,Ponders End (Platform 1),51.6428463,-0.0347837,PON,PNDRSEN,,Europe/London,0,1,910GPNDRSEN,0
9100NMBRLPK3,Northumberland Park (London) (Platform 3),51.6019134,-0.0538985,NUM,NMBRLPK,,Europe/London,0,3,910GNMBRLPK,0
9100TTNHMHL3,Tottenham Hale (Platform 3),51.5881223,-0.0599366,TOM,TTNHMHL,,Europe/London,1,3,910GTTNHMHL,0
9100ARUNDEL1,Arundel (Platform 1),50.8480121,-0.5462656,ARU,ARUNDEL,,Europe/London,0,1,910GARUNDEL,0
9100AMLY1,Amberley (Platform 1),50.8966534,-0.5419326,AMY,AMLY,,Europe/London,0,1,910GAMLY,0
9100PULBRO1,Pulborough (Platform 1),50.9575905,-0.5164713,PUL,PULBRO,,Europe/London,0,1,910GPULBRO,0
9100BILSHST1,Billingshurst (Platform 1),51.0150946,-0.4499027,BIG,BILSHST,,Europe/London,0,1,910GBILSHST,0
9100CHRSTSH1,Christs Hospital (Platform 1),51.0508094,-0.3638616,CHH,CHRSTSH,,Europe/London,0,1,910GCHRSTSH,0
9100CRAWLEY1,Crawley (Platform 1),51.1120247,-0.1865249,CRW,CRAWLEY,,Europe/London,1,1,910GCRAWLEY,0
9100SESARDM1,Southease (Platform 1),50.83111,0.0306729,SEE,SESARDM,,Europe/London,0,1,910GSESARDM,0
9100PLMPTON2,Plumpton (Platform 2),50.9284626,-0.0598099,PMP,PLMPTON,,Europe/London,0,2,910GPLMPTON,0
9100CODNBCH2,Cooden Beach (Platform 2),50.8333713,0.4267026,COB,CODNBCH,,Europe/London,0,2,910GCODNBCH,0
9100CTNG2,Collington (Platform 2),50.8392876,0.4571842,CLL,CTNG,,Europe/London,0,2,910GCTNG,0
9100WHORNDN1,West Horndon (Platform 1),51.5678537,0.3406801,WHR,WHORNDN,,Europe/London,0,1,910GWHORNDN,0
9100MARDEN2,Marden (Kent) (Platform 2),51.1754411,0.4929884,MRN,MARDEN,,Europe/London,0,2,910GMARDEN,0
9100SPHS2,Staplehurst (Platform 2),51.1715258,0.5504987,SPU,SPHS,,Europe/London,1,2,910GSPHS,0
9100PLUCKLY2,Pluckley (Platform 2),51.1564849,0.7465822,PLC,PLUCKLY,,Europe/London,0,2,910GPLUCKLY,0
9100WENHNGR2,Westenhanger (Platform 2),51.0949221,1.0382037,WHA,WENHNGR,,Europe/London,0,2,910GWENHNGR,0
9100SDLG2,Sandling (Platform 2),51.0904998,1.0660027,SDG,SDLG,,Europe/London,0,2,910GSDLG,0
9100FLKSTNW2,Folkestone West (Platform 2),51.0847184,1.1537821,FKW,FLKSTNW,,Europe/London,0,2,910GFLKSTNW,0
9100FLKSTNC2,Folkestone Central (Platform 2),51.0828121,1.1683853,FKC,FLKSTNC,,Europe/London,1,2,910GFLKSTNC,0
9100MMIL2,Martin Mill (Platform 2),51.1706421,1.3479881,MTM,MMIL,,Europe/London,0,2,910GMMIL,0
9100WALMER2,Walmer (Platform 2),51.2032233,1.3825478,WAM,WALMER,,Europe/London,0,2,910GWALMER,0
9100DEAL2,Deal (Platform 2),51.2231068,1.3986457,DEA,DEAL,,Europe/London,0,2,910GDEAL,0
9100SWCH2,Sandwich (Platform 2),51.2699629,1.3422666,SDW,SWCH,,Europe/London,0,2,910GSWCH,0
9100BOSHAM1,Bosham (Platform 1),50.8428556,-0.8471677,BOH,BOSHAM,,Europe/London,0,1,910GBOSHAM,0
9100WRBLNGT1,Warblington (Platform 1),50.8535025,-0.9671209,WBL,WRBLNGT,,Europe/London,0,1,910GWRBLNGT,0
9100EMSWTH1,Emsworth (Platform 1),50.8516544,-0.9385075,EMS,EMSWTH,,Europe/London,0,1,910GEMSWTH,0
9100NUTBORN1,Nutbourne (Platform 1),50.8461502,-0.8839188,NUT,NUTBORN,,Europe/London,0,1,910GNUTBORN,0
9100FSHBORN1,Fishbourne (Sussex) (Platform 1),50.8391034,-0.8155144,FSB,FSHBORN,,Europe/London,0,1,910GFSHBORN,0
9100SBOURNE1,Southbourne (Platform 1),50.8481981,-0.9071791,SOB,SBOURNE,,Europe/London,0,1,910GSBOURNE,0
9100DLMRNOK1,Dalmarnock (Platform 1),55.8421847,-4.2174709,DAK,DLMRNOK,,Europe/London,1,1,910GDLMRNOK,0
9100BRIDGTN1,Bridgeton (Platform 1),55.8483262,-4.2248178,BDG,BRIDGTN,,Europe/London,2,1,910GBRIDGTN,0
9100ARGYLST1,Argyle Street (Platform 1),55.8576091,-4.2506187,AGS,ARGYLST,,Europe/London,2,1,910GARGYLST,0
9100JORDANH2,Jordanhill (Platform 2),55.8826725,-4.3249413,JOR,JORDANH,,Europe/London,0,2,910GJORDANH,0
9100SCTSTNH2,Scotstounhill (Platform 2),55.8850022,-4.3529637,SCH,SCTSTNH,,Europe/London,0,2,910GSCTSTNH,0
9100YOKER2,Yoker (Platform 2),55.8925796,-4.3863668,YOK,YOKER,,Europe/London,0,2,910GYOKER,0
9100CLYBANK2,Clydebank (Platform 2),55.9005667,-4.4041552,CYK,CLYBANK,,Europe/London,0,2,910GCLYBANK,0
9100FRTMTLD1,Fort Matilda (Platform 1),55.9589194,-4.7952091,FTM,FRTMTLD,,Europe/London,0,1,910GFRTMTLD,0
9100GRENCKW1,Greenock West (Platform 1),55.9472002,-4.767762,GKW,GRENCKW,,Europe/London,2,1,910GGRENCKW,0
9100GRENCKC1,Greenock Central (Platform 1),55.9452099,-4.7518756,GKC,GRENCKC,,Europe/London,0,1,910GGRENCKC,0
9100CRTSDYK1,Cartsdyke (Platform 1),55.9422124,-4.7323622,CDY,CRTSDYK,,Europe/London,0,1,910GCRTSDYK,0
9100BOGSTON1,Bogston (Platform 1),55.9371847,-4.7122765,BGS,BOGSTON,,Europe/London,2,1,910GBOGSTON,0
9100PTGLSGW1,Port Glasgow (Platform 1),55.9333809,-4.6897401,PTG,PTGLSGW,,Europe/London,1,1,910GPTGLSGW,0
9100WHHL1,Woodhall (Platform 1),55.9312843,-4.6557539,WDL,WHHL,,Europe/London,0,1,910GWHHL,0
9100LGBK1,Langbank (Platform 1),55.9245747,-4.5861277,LGB,LGBK,,Europe/London,0,1,910GLGBK,0
9100BISHPTN1,Bishopton (Renfrewshire) (Platform 1),55.902096,-4.5004927,BPT,BISHPTN,,Europe/London,0,1,910GBISHPTN,0
9100PSLYSTJ1,Paisley St James (Platform 1),55.8521362,-4.4424438,PYJ,PSLYSTJ,,Europe/London,2,1,910GPSLYSTJ,0
9100SWCH1,Sandwich (Platform 1),51.2699629,1.3422666,SDW,SWCH,,Europe/London,0,1,910GSWCH,0
9100DEAL1,Deal (Platform 1),51.2231068,1.3986457,DEA,DEAL,,Europe/London,0,1,910GDEAL,0
9100WALMER1,Walmer (Platform 1),51.2032233,1.3825478,WAM,WALMER,,Europe/London,0,1,910GWALMER,0
9100MMIL1,Martin Mill (Platform 1),51.1706421,1.3479881,MTM,MMIL,,Europe/London,0,1,910GMMIL,0
9100GTCOATS2,Great Coates (Platform 2),53.5757224,-0.1298327,GCT,GTCOATS,,Europe/London,1,2,910GGTCOATS,0
9100HEALING2,Healing (Platform 2),53.5818378,-0.1606176,HLI,HEALING,,Europe/London,0,2,910GHEALING,0
9100SBROUGH2,Stallingborough (Platform 2),53.5871667,-0.1834359,SLL,SBROUGH,,Europe/London,0,2,910GSBROUGH,0
9100HABRO1,Habrough (Platform 1),53.6061,-0.2693542,HAB,HABRO,,Europe/London,0,1,910GHABRO,0
9100ULCEBY1,Ulceby (Platform 1),53.6193448,-0.3008051,ULC,ULCEBY,,Europe/London,1,1,910GULCEBY,0
9100THABBEY2,Thornton Abbey (Platform 2),53.6543161,-0.3230242,TNA,THABBEY,,Europe/London,0,2,910GTHABBEY,0
9100NHOL1,New Holland (Platform 1),53.701985,-0.3601529,NHL,NHOL,,Europe/London,1,1,910GNHOL,0
9100BARWHVN1,Barrow Haven (Platform 1),53.6974548,-0.392889,BAV,BARWHVN,,Europe/London,1,1,910GBARWHVN,0
9100BRTHMBR1,Barton-on-Humber (Platform 1),53.6889938,-0.4430513,BAU,BRTHMBR,,Europe/London,1,1,910GBRTHMBR,0
9100STMGTS1,St Margarets (London) (Platform 1),51.4551535,-0.3202187,SMG,STMGTS,,Europe/London,0,1,910GSTMGTS,0
9100NSHEEN1,North Sheen (Platform 1),51.4653247,-0.2865821,NSH,NSHEEN,,Europe/London,2,1,910GNSHEEN,0
9100MRTLKE1,Mortlake (Platform 1),51.4680644,-0.2673708,MTL,MRTLKE,,Europe/London,0,1,910GMRTLKE,0
9100PUTNEY1,Putney (Platform 1),51.4609339,-0.2153478,PUT,PUTNEY,,Europe/London,1,1,910GPUTNEY,0
9100WDWTOWN4,Wandsworth Town (Platform 4),51.4609627,-0.1882512,WNT,WDWTOWN,,Europe/London,2,4,910GWDWTOWN,0
9100CRSHLTB1,Carshalton Beeches (Platform 1),51.3571959,-0.1693507,CSB,CRSHLTB,,Europe/London,0,1,910GCRSHLTB,0
9100WADDON1,Waddon (Platform 1),51.3673338,-0.1174351,WDO,WADDON,,Europe/London,0,1,910GWADDON,0
9100THTH2,Thornton Heath (Platform 2),51.3989438,-0.1005158,TTH,THTH,,Europe/London,1,2,910GTHTH,0
9100STJOHNS1,St Johns (London) (Platform 1),51.4690905,-0.0221846,SAJ,STJOHNS,,Europe/London,2,1,910GSTJOHNS,0
9100KRKH1,Kirkhill (Platform 1),55.8140092,-4.1673394,KKH,KRKH,,Europe/London,0,1,910GKRKH,0
9100BRSDE1,Burnside (South Lanarkshire) (Platform 1),55.8169392,-4.2031241,BUI,BRSDE,,Europe/London,2,1,910GBRSDE,0
9100CFFT1,Croftfoot (Platform 1),55.818309,-4.2283132,CFF,CFFT,,Europe/London,2,1,910GCFFT,0
9100CROSSHL1,Crosshill (Platform 1),55.8331586,-4.2565978,COI,CROSSHL,,Europe/London,2,1,910GCROSSHL,0
9100QUNPARK1,Queens Park (Glasgow) (Platform 1),55.8354076,-4.2669343,QPK,QUNPARK,,Europe/London,2,1,910GQUNPARK,0
9100PLKLHDE1,Pollokshields East (Platform 1),55.8407606,-4.2690794,PLE,PLKLHDE,,Europe/London,2,1,910GPLKLHDE,0
9100ESHER1,Esher (Platform 1),51.3800529,-0.3532042,ESH,ESHER,,Europe/London,0,1,910GESHER,0
9100MLDTHRD1,Mauldeth Road (Platform 1),53.4336613,-2.208947,MAU,MLDTHRD,,Europe/London,0,1,910GMLDTHRD,0
9100BAGE2,Burnage (Platform 2),53.4221262,-2.2151579,BNA,BAGE,,Europe/London,0,2,910GBAGE,0
9100EDIDBRY1,East Didsbury (Platform 1),53.4093155,-2.2219984,EDY,EDIDBRY,,Europe/London,0,1,910GEDIDBRY,0
9100GATLEY1,Gatley (Platform 1),53.3932392,-2.2306618,GTY,GATLEY,,Europe/London,0,1,910GGATLEY,0
9100STYAL1,Styal (Platform 1),53.3485037,-2.2404522,SYA,STYAL,,Europe/London,0,1,910GSTYAL,0
9100HYDEN1,Hyde North (Platform 1),53.4644638,-2.0850338,HYT,HYDEN,,Europe/London,2,1,910GHYDEN,0
9100MERSTHM1,Merstham (Platform 1),51.2641687,-0.150065,MHM,MERSTHM,,Europe/London,0,1,910GMERSTHM,0
9100MAZEH2,Maze Hill (Platform 2),51.4826479,0.00375,MZH,MAZEH,,Europe/London,0,2,910GMAZEH,0
9100BELVEDR2,Belvedere (Platform 2),51.4922273,0.1533667,BVD,BELVEDR,,Europe/London,0,2,910GBELVEDR,0
9100LNGBKBY2,Long Buckby (Platform 2),52.2944171,-1.0860534,LBK,LNGBKBY,,Europe/London,2,2,910GLNGBKBY,0
9100CANLEY1,Canley (Platform 1),52.3993806,-1.5475333,CNL,CANLEY,,Europe/London,0,1,910GCANLEY,0
9100TILEH1,Tile Hill (Platform 1),52.3951906,-1.5972825,THL,TILEH,,Europe/London,0,1,910GTILEH,0
9100MILKNPK2,Milliken Park (Platform 2),55.8248309,-4.5342076,MIN,MILKNPK,,Europe/London,0,2,910GMILKNPK,0
9100HOWOOD2,Howwood (Renfrewshire) (Platform 2),55.8105718,-4.5625091,HOZ,HOWOOD,,Europe/London,0,2,910GHOWOOD,0
9100LCHWNCH2,Lochwinnoch (Platform 2),55.7871745,-4.6157219,LHW,LCHWNCH,,Europe/London,0,2,910GLCHWNCH,0
9100GLGN2,Glengarnock (Platform 2),55.7390497,-4.6748068,GLG,GLGN,,Europe/London,0,2,910GGLGN,0
9100DALRY2,Dalry (Platform 2),55.7060234,-4.7111544,DLY,DALRY,,Europe/London,0,2,910GDALRY,0
9100STVNSTN2,Stevenston (Platform 2),55.6342495,-4.7501074,STV,STVNSTN,,Europe/London,1,2,910GSTVNSTN,0
9100SLCT2,Saltcoats (Platform 2),55.6338921,-4.7845808,SLT,SLCT,,Europe/London,0,2,910GSLCT,0
9100ARDRSSB1,Ardrossan South Beach (Platform 1),55.6411682,-4.8005743,ASB,ARDRSSB,,Europe/London,1,1,910GARDRSSB,0
9100WKILBRD1,West Kilbride (Platform 1),55.6962333,-4.8515256,WKB,WKILBRD,,Europe/London,1,1,910GWKILBRD,0
9100FAIRLIE1,Fairlie (Platform 1),55.7519642,-4.8531164,FRL,FAIRLIE,,Europe/London,1,1,910GFAIRLIE,0
9100HLDNBRO1,Hildenborough (Platform 1),51.2145812,0.2278823,HLB,HLDNBRO,,Europe/London,0,1,910GHLDNBRO,0
9100CHLSFLD1,Chelsfield (Platform 1),51.3566115,0.1083284,CLD,CHLSFLD,,Europe/London,0,1,910GCHLSFLD,0
9100MALDENM2,Malden Manor (Platform 2),51.3847246,-0.2612451,MAL,MALDENM,,Europe/London,2,2,910GMALDENM,0
9100TOLWTH2,Tolworth (Platform 2),51.3768746,-0.2794424,TOL,TOLWTH,,Europe/London,2,2,910GTOLWTH,0
9100CHSSN2,Chessington North (Platform 2),51.363982,-0.3007319,CSN,CHSSN,,Europe/London,2,2,910GCHSSN,0
9100STDENYS3,St Denys (Platform 3),50.9222702,-1.3878591,SDN,STDENYS,,Europe/London,0,3,910GSTDENYS,0
9100BITERNE2,Bitterne (Platform 2),50.9181488,-1.3769392,BTE,BITERNE,,Europe/London,0,2,910GBITERNE,0
9100SHOLING2,Sholing (Platform 2),50.8964487,-1.364194,SHO,SHOLING,,Europe/London,0,2,910GSHOLING,0
9100NETLEY2,Netley (Platform 2),50.8749,-1.3416249,NTL,NETLEY,,Europe/London,0,2,910GNETLEY,0
9100HMBLE2,Hamble (Platform 2),50.8712423,-1.3289942,HME,HMBLE,,Europe/London,0,2,910GHMBLE,0
9100BURSLDN2,Bursledon (Platform 2),50.8835729,-1.305111,BUO,BURSLDN,,Europe/London,0,2,910GBURSLDN,0
9100SWNWICK2,Swanwick (Platform 2),50.8757233,-1.2657803,SNW,SWNWICK,,Europe/London,0,2,910GSWNWICK,0
9100PCHESTR2,Portchester (Platform 2),50.8488504,-1.125024,PTC,PCHESTR,,Europe/London,0,2,910GPCHESTR,0
9100COSHAM2,Cosham (Platform 2),50.8418849,-1.0673875,CSA,COSHAM,,Europe/London,0,2,910GCOSHAM,0
9100HILSEA2,Hilsea (Platform 2),50.8283898,-1.058643,HLS,HILSEA,,Europe/London,0,2,910GHILSEA,0
9100MORDENS1,Morden South (Platform 1),51.395678,-0.1992399,MDS,MORDENS,,Europe/London,2,1,910GMORDENS,0
9100SMERTON1,South Merton (Platform 1),51.4033264,-0.2055176,SMO,SMERTON,,Europe/London,2,1,910GSMERTON,0
9100WIMLCHS1,Wimbledon Chase (Platform 1),51.410247,-0.2147881,WBO,WIMLCHS,,Europe/London,2,1,910GWIMLCHS,0
9100HYDNSRD1,Haydons Road (Platform 1),51.4253627,-0.1883425,HYR,HYDNSRD,,Europe/London,0,1,910GHYDNSRD,0
9100TOOTING1,Tooting (Platform 1),51.4198567,-0.1613148,TOO,TOOTING,,Europe/London,2,1,910GTOOTING,0
9100LBGHJN1,Loughborough Junction (Platform 1),51.4662551,-0.1021612,LGJ,LBGHJN,,Europe/London,2,1,910GLBGHJN,0
9100FAMBDGE1,North Fambridge (Platform 1),51.6486316,0.6817622,NFA,FAMBDGE,,Europe/London,0,1,910GFAMBDGE,0
9100WIVENHO1,Wivenhoe (Platform 1),51.8565976,0.9562415,WIV,WIVENHO,,Europe/London,0,1,910GWIVENHO,0
9100CLCHHYT1,Hythe (Essex) (Platform 1),51.8858134,0.9275278,HYH,CLCHHYT,,Europe/London,0,1,910GCLCHHYT,0
9100BRDFDOA2,Bradford-on-Avon (Platform 2),51.344789,-2.2527549,BOA,BRDFDOA,,Europe/London,0,2,910GBRDFDOA,0
9100TRWBRDG2,Trowbridge (Platform 2),51.3200055,-2.2143313,TRO,TRWBRDG,,Europe/London,0,2,910GTRWBRDG,0
9100FROME1,Frome (Platform 1),51.2274459,-2.3099995,FRO,FROME,,Europe/London,1,1,910GFROME,0
9100KNLY2,Kenley (Platform 2),51.3247757,-0.100844,KLY,KNLY,,Europe/London,0,2,910GKNLY,0
9100WHYTLFS2,Whyteleafe South (Platform 2),51.3037508,-0.0772314,WHS,WHYTLFS,,Europe/London,0,2,910GWHYTLFS,0
9100CHSD2,Chipstead (Platform 2),51.3093522,-0.1693688,CHP,CHSD,,Europe/London,0,2,910GCHSD,0
9100KGWD2,Kingswood (Platform 2),51.2947257,-0.2110128,KND,KGWD,,Europe/London,0,2,910GKGWD,0
9100TADWTH2,Tadworth (Platform 2),51.2914245,-0.2358629,TAD,TADWTH,,Europe/London,0,2,910GTADWTH,0
9100OVTN2,Overton (Platform 2),51.2541369,-1.2599752,OVR,OVTN,,Europe/London,0,2,910GOVTN,0
9100WHTCHRH2,Whitchurch (Hampshire) (Platform 2),51.2376461,-1.3387418,WCH,WHTCHRH,,Europe/London,0,2,910GWHTCHRH,0
9100GRATELY2,Grateley (Platform 2),51.1701959,-1.6204438,GRT,GRATELY,,Europe/London,0,2,910GGRATELY,0
9100RAYLEGH1,Rayleigh (Platform 1),51.5894866,0.6002479,RLG,RAYLEGH,,Europe/London,0,1,910GRAYLEGH,0
9100BILERCY1,Billericay (Platform 1),51.6288429,0.4181268,BIC,BILERCY,,Europe/London,1,1,910GBILERCY,0
9100ALFRETN1,Alfreton (Platform 1),53.1010582,-1.3698401,ALF,ALFRETN,,Europe/London,0,1,910GALFRETN,0
9100DRONFLD2,Dronfield (Platform 2),53.3014,-1.4692529,DRO,DRONFLD,,Europe/London,0,2,910GDRONFLD,0
9100WHAMHL8,West Ham (Platform 8),51.5280966,0.0045685,WEH,WHAMHL,,Europe/London,1,8,910GWHAMHL,0
9100KMSLY1,Kemsley (Platform 1),51.3617377,0.7349601,KML,KMSLY,,Europe/London,0,1,910GKMSLY,0
9100QUENBRO2,Queenborough (Platform 2),51.4159485,0.7497508,QBR,QUENBRO,,Europe/London,0,2,910GQUENBRO,0
9100RYDP1,Ryde Pier Head (Platform 1),50.7390318,-1.1604721,RYP,RYDP,,Europe/London,1,1,910GRYDP,0
9100RYDE1,Ryde Esplanade (Platform 1),50.7330498,-1.1596024,RYD,RYDE,,Europe/London,1,1,910GRYDE,0
9100RYDS2,Ryde St Johns Road (Platform 2),50.7241835,-1.1566159,RYR,RYDS,,Europe/London,0,2,910GRYDS,0
9100BRDING1,Brading (Platform 1),50.6783048,-1.1386031,BDN,BRDING,,Europe/London,0,1,910GBRDING,0
9100SNDOWN2,Sandown (Platform 2),50.6571102,-1.1622454,SAN,SNDOWN,,Europe/London,0,2,910GSNDOWN,0
9100LAKEIOW1,Lake (Platform 1),50.6461826,-1.1664698,LKE,LAKEIOW,,Europe/London,0,1,910GLAKEIOW,0
9100SHANKLN1,Shanklin (Platform 1),50.6338793,-1.1799202,SHN,SHANKLN,,Europe/London,1,1,910GSHANKLN,0
9100WINDSEC1,Windsor & Eton Central (Platform 1),51.4832744,-0.6105638,WNC,WINDSEC,,Europe/London,1,1,910GWINDSEC,0
9100PMBRYBP1,Pembrey & Burry Port (Platform 1),51.6840593,-4.2489624,PBY,PMBRYBP,,Europe/London,0,1,910GPMBRYBP,0
9100LLNLLI2,Llanelli (Platform 2),51.6737797,-4.1610727,LLE,LLNLLI,,Europe/London,0,2,910GLLNLLI,0
9100NEATH2,Neath (Platform 2),51.6621839,-3.8070189,NTH,NEATH,,Europe/London,0,2,910GNEATH,0
9100PTALBOT2,Port Talbot Parkway (Platform 2),51.5924394,-3.7817162,PTA,PTALBOT,,Europe/London,1,2,910GPTALBOT,0
9100BROADGR1,Broad Green (Platform 1),53.4065083,-2.8933889,BGE,BROADGR,,Europe/London,0,1,910GBROADGR,0
9100ROBY1,Roby (Platform 1),53.4100591,-2.8555038,ROB,ROBY,,Europe/London,1,1,910GROBY,0
9100PRESCOT1,Prescot (Platform 1),53.4235274,-2.7989869,PSC,PRESCOT,,Europe/London,1,1,910GPRESCOT,0
9100ECPK1,Eccleston Park (Platform 1),53.4307355,-2.7803346,ECL,ECPK,,Europe/London,0,1,910GECPK,0
9100THHT1,Thatto Heath (Platform 1),53.4366896,-2.7594696,THH,THHT,,Europe/London,0,1,910GTHHT,0
9100GARW1,Garswood (Platform 1),53.4880481,-2.6719929,GSW,GARW,,Europe/London,0,1,910GGARW,0
9100BRYN1,Bryn (Platform 1),53.4997249,-2.6476163,BYN,BRYN,,Europe/London,2,1,910GBRYN,0
9100BLLVUE1,Belle Vue (Platform 1),53.4614732,-2.1800733,BLV,BLLVUE,,Europe/London,2,1,910GBLLVUE,0
9100RYDRBRW1,Ryder Brow (Platform 1),53.4569538,-2.1739555,RRB,RYDRBRW,,Europe/London,2,1,910GRYDRBRW,0
9100REDISHN1,Reddish North (Platform 1),53.4497429,-2.1567562,RDN,REDISHN,,Europe/London,0,1,910GREDISHN,0
9100BRNGTN1,Brinnington (Platform 1),53.4319627,-2.1341235,BNT,BRNGTN,,Europe/London,2,1,910GBRNGTN,0
9100BREDBRY1,Bredbury (Platform 1),53.4230377,-2.1104918,BDY,BREDBRY,,Europe/London,2,1,910GBREDBRY,0
9100WYEE2,Wye (Platform 2),51.1853805,0.9294965,WYE,WYEE,,Europe/London,0,2,910GWYEE,0
9100CLMN2,Chilham (Platform 2),51.2444245,0.9760562,CIL,CLMN,,Europe/London,0,2,910GCLMN,0
9100CHARTHM2,Chartham (Platform 2),51.2571747,1.0179051,CRT,CHARTHM,,Europe/London,0,2,910GCHARTHM,0
9100STURRY2,Sturry (Platform 2),51.300986,1.1222644,STU,STURRY,,Europe/London,0,2,910GSTURRY,0
9100POSILPK2,Possilpark & Parkhouse (Platform 2),55.890141,-4.2583527,PPK,POSILPK,,Europe/London,0,2,910GPOSILPK,0
9100LAMBH2,Gilshochill (Platform 2),55.8972756,-4.2824645,GSC,LAMBH,,Europe/London,2,2,910GLAMBH,0
9100SUMRSTN2,Summerston (Platform 2),55.8988407,-4.2921881,SUM,SUMRSTN,,Europe/London,0,2,910GSUMRSTN,0
9100MRYHILL2,Maryhill (Platform 2),55.8975029,-4.3011492,MYH,MRYHILL,,Europe/London,0,2,910GMRYHILL,0
9100DAWSHLM1,Kelvindale (Platform 1),55.8934819,-4.31008,KVD,DAWSHLM,,Europe/London,1,1,910GDAWSHLM,0
9100WRUISLP4,West Ruislip (Platform 4),51.5695047,-0.4370447,WRU,WRUISLP,,Europe/London,0,4,910GWRUISLP,0
9100HRNSY1,Hornsey (Platform 1),51.5863215,-0.1116832,HRN,HRNSY,,Europe/London,2,1,910GHRNSY,0
9100STIVES1,St Ives (Cornwall) (Platform 1),50.2088461,-5.4777671,SIV,STIVES,,Europe/London,1,1,910GSTIVES,0
9100CARBISB1,Carbis Bay (Platform 1),50.1970953,-5.4637047,CBB,CARBISB,,Europe/London,0,1,910GCARBISB,0
9100CFPK2,Crofton Park (Platform 2),51.4552149,-0.0366299,CFT,CFPK,,Europe/London,0,2,910GCFPK,0
9100CATFORD2,Catford (Platform 2),51.4444696,-0.0261521,CTF,CATFORD,,Europe/London,1,2,910GCATFORD,0
9100BCKNHMH2,Beckenham Hill (Platform 2),51.4245222,-0.0159101,BEC,BCKNHMH,,Europe/London,0,2,910GBCKNHMH,0
9100RBRN2,Ravensbourne (Platform 2),51.4143132,-0.0076295,RVB,RBRN,,Europe/London,0,2,910GRBRN,0
9100EYNSFD2,Eynsford (Platform 2),51.3623288,0.2042149,EYN,EYNSFD,,Europe/London,0,2,910GEYNSFD,0
9100SHRMKT2,Shoreham (Kent) (Platform 2),51.3321241,0.1887766,SEH,SHRMKT,,Europe/London,0,2,910GSHRMKT,0
9100OTFORD2,Otford (Platform 2),51.3129318,0.1971759,OTF,OTFORD,,Europe/London,0,2,910GOTFORD,0
9100BATABAL2,Bat & Ball (Platform 2),51.2901134,0.1941812,BBL,BATABAL,,Europe/London,0,2,910GBATABAL,0
9100MLDSWTH1,Mouldsworth (Platform 1),53.2318152,-2.7322101,MLD,MLDSWTH,,Europe/London,0,1,910GMLDSWTH,0
9100DELAMER1,Delamere (Platform 1),53.2288345,-2.6665302,DLM,DELAMER,,Europe/London,0,1,910GDELAMER,0
9100CUDNGTN1,Cuddington (Platform 1),53.2399223,-2.5995386,CUD,CUDNGTN,,Europe/London,0,1,910GCUDNGTN,0
9100GBNK1,Greenbank (Platform 1),53.2514201,-2.5344589,GBK,GBNK,,Europe/London,0,1,910GGBNK,0
9100NTHWICH1,Northwich (Platform 1),53.2613648,-2.4968484,NWI,NTHWICH,,Europe/London,0,1,910GNTHWICH,0
9100LSTG1,Lostock Gralam (Platform 1),53.2677491,-2.4647767,LTG,LSTG,,Europe/London,0,1,910GLSTG,0
9100PLUMLEY1,Plumley (Platform 1),53.2748823,-2.4196724,PLM,PLUMLEY,,Europe/London,0,1,910GPLUMLEY,0
9100KNUTSFD1,Knutsford (Platform 1),53.3015965,-2.3721765,KNF,KNUTSFD,,Europe/London,0,1,910GKNUTSFD,0
9100MOBERLY1,Mobberley (Platform 1),53.3295673,-2.3336005,MOB,MOBERLY,,Europe/London,0,1,910GMOBERLY,0
9100ASHLEY1,Ashley (Platform 1),53.3557218,-2.341439,ASY,ASHLEY,,Europe/London,0,1,910GASHLEY,0
9100HALE1,Hale (Manchester) (Platform 1),53.3785218,-2.3474975,HAL,HALE,,Europe/London,0,1,910GHALE,0
9100CHORLEY1,Chorley (Platform 1),53.6529842,-2.626934,CRL,CHORLEY,,Europe/London,1,1,910GCHORLEY,0
9100ARNSIDE1,Arnside (Platform 1),54.202601,-2.8280672,ARN,ARNSIDE,,Europe/London,0,1,910GARNSIDE,0
9100BREDBRY2,Bredbury (Platform 2),53.4230377,-2.1104918,BDY,BREDBRY,,Europe/London,2,2,910GBREDBRY,0
9100BRNGTN2,Brinnington (Platform 2),53.4319627,-2.1341235,BNT,BRNGTN,,Europe/London,2,2,910GBRNGTN,0
9100REDISHN2,Reddish North (Platform 2),53.4497429,-2.1567562,RDN,REDISHN,,Europe/London,0,2,910GREDISHN,0
9100RYDRBRW2,Ryder Brow (Platform 2),53.4569538,-2.1739555,RRB,RYDRBRW,,Europe/London,2,2,910GRYDRBRW,0
9100BLLVUE2,Belle Vue (Platform 2),53.4614732,-2.1800733,BLV,BLLVUE,,Europe/London,2,2,910GBLLVUE,0
9100MARLOW1,Marlow (Platform 1),51.571086,-0.7664026,MLW,MARLOW,,Europe/London,0,1,910GMARLOW,0
9100COOKHAM1,Cookham (Platform 1),51.5573685,-0.7222499,COO,COOKHAM,,Europe/London,1,1,910GCOOKHAM,0
9100FURZEP1,Furze Platt (Platform 1),51.5331544,-0.7284148,FZP,FURZEP,,Europe/London,0,1,910GFURZEP,0
9100BESTON2,Beeston (Platform 2),52.9207938,-1.2075065,BEE,BESTON,,Europe/London,0,2,910GBESTON,0
9100TMWTHHL4,Tamworth (Platform 4),52.6375245,-1.6870818,TAH,TMWTHHL,,Europe/London,1,4,910GTMWTHLL,0
9100TORQUAY2,Torquay (Platform 2),50.4610509,-3.5430302,TQY,TORQUAY,,Europe/London,0,2,910GTORQUAY,0
9100EXMOUTH1,Exmouth (Platform 1),50.6215885,-3.4149723,EXM,EXMOUTH,,Europe/London,1,1,910GEXMOUTH,0
9100HGHMSPK1,Highams Park (Platform 1),51.6088927,-0.0001301,HIP,HGHMSPK,,Europe/London,1,1,910GHGHMSPK,0
9100WDST1,Wood Street (Platform 1),51.587041,-0.0016791,WST,WDST,,Europe/London,2,1,910GWDST,0
9100STJMSST1,St James Street (Walthamstow) (Platform 1),51.5811716,-0.0322047,SJS,STJMSST,,Europe/London,2,1,910GSTJMSST,0
9100CLAPTON1,Clapton (Platform 1),51.5616555,-0.0568709,CPT,CLAPTON,,Europe/London,2,1,910GCLAPTON,0
9100LRDGFD1,London Road (Guildford) (Platform 1),51.2407385,-0.565161,LRD,LRDGFD,,Europe/London,0,1,910GLRDGFD,0
9100CLANDON1,Clandon (Platform 1),51.2640346,-0.5028629,CLA,CLANDON,,Europe/London,0,1,910GCLANDON,0
9100HRSLEY1,Horsley (Platform 1),51.2795154,-0.4352969,HSY,HRSLEY,,Europe/London,0,1,910GHRSLEY,0
9100EFNGHMJ1,Effingham Junction (Platform 1),51.2912974,-0.4200621,EFF,EFNGHMJ,,Europe/London,0,1,910GEFNGHMJ,0
9100CBHMSDA1,Cobham & Stoke d'Abernon (Platform 1),51.3179185,-0.3894128,CSD,CBHMSDA,,Europe/London,0,1,910GCBHMSDA,0
9100OXSHOTT1,Oxshott (Platform 1),51.3361004,-0.3625418,OXS,OXSHOTT,,Europe/London,0,1,910GOXSHOTT,0
9100CLYGATE1,Claygate (Platform 1),51.3610578,-0.3484109,CLG,CLYGATE,,Europe/London,0,1,910GCLYGATE,0
9100HNCHLYW1,Hinchley Wood (Platform 1),51.3750646,-0.3406341,HYW,HNCHLYW,,Europe/London,2,1,910GHNCHLYW,0
9100THETFD2,Thetford (Platform 2),52.4191556,0.7452832,TTF,THETFD,,Europe/London,0,2,910GTHETFD,0
9100CRFD1,Crayford (Platform 1),51.448177,0.1783894,CRY,CRFD,,Europe/London,0,1,910GCRFD,0
9100BEXLEY1,Bexley (Platform 1),51.4402375,0.1479494,BXY,BEXLEY,,Europe/London,1,1,910GBEXLEY,0
9100ALBNYPK1,Albany Park (Platform 1),51.4353837,0.1259653,AYP,ALBNYPK,,Europe/London,2,1,910GALBNYPK,0
9100SIDCUP1,Sidcup (Platform 1),51.4340208,0.1034297,SID,SIDCUP,,Europe/London,0,1,910GSIDCUP,0
9100MOTNGHM1,Mottingham (Platform 1),51.4402515,0.0499618,MTG,MOTNGHM,,Europe/London,0,1,910GMOTNGHM,0
9100DEGANWY1,Deganwy (Platform 1),53.2945847,-3.8331941,DGY,DEGANWY,,Europe/London,0,1,910GDEGANWY,0
9100HEWORTH2,Heworth (Platform 2),54.9516098,-1.5571558,HEW,HEWORTH,,Europe/London,0,2,910GHEWORTH,0
9100BLAYDON2,Blaydon (Platform 2),54.9659633,-1.7128813,BLO,BLAYDON,,Europe/London,0,2,910GBLAYDON,0
9100WYLAM2,Wylam (Platform 2),54.9748735,-1.8143684,WYM,WYLAM,,Europe/London,0,2,910GWYLAM,0
9100PRUDHOE2,Prudhoe (Platform 2),54.9658707,-1.8647367,PRU,PRUDHOE,,Europe/London,0,2,910GPRUDHOE,0
9100STCKSFL2,Stocksfield (Platform 2),54.946811,-1.9171893,SKS,STCKSFL,,Europe/London,0,2,910GSTCKSFL,0
9100RIDNGML2,Riding Mill (Platform 2),54.9489331,-1.9719541,RDM,RIDNGML,,Europe/London,0,2,910GRIDNGML,0
9100CRBG2,Corbridge (Platform 2),54.9662648,-2.0190286,CRB,CRBG,,Europe/London,0,2,910GCRBG,0
9100WHAMHL7,West Ham (Platform 7),51.5280966,0.0045685,WEH,WHAMHL,,Europe/London,1,7,910GWHAMHL,0
9100BMLY1,Bramley (Hampshire) (Platform 1),51.3299792,-1.0608367,BMY,BMLY,,Europe/London,0,1,910GBMLY,0
9100LYEE1,Lye (West Midlands) (Platform 1),52.4599417,-2.1160497,LYE,LYEE,,Europe/London,0,1,910GLYEE,0
9100CRADLYH1,Cradley Heath (Platform 1),52.4694408,-2.0906252,CRA,CRADLYH,,Europe/London,0,1,910GCRADLYH,0
9100OLHL1,Old Hill (Platform 1),52.4707939,-2.0561814,OHL,OLHL,,Europe/London,0,1,910GOLHL,0
9100ROWLEYR1,Rowley Regis (Platform 1),52.4774198,-2.0308221,ROW,ROWLEYR,,Europe/London,0,1,910GROWLEYR,0
9100LGRN1,Langley Green (Platform 1),52.4934857,-2.0054314,LGG,LGRN,,Europe/London,0,1,910GLGRN,0
9100HNDSHWT2,The Hawthorns (Platform 2),52.5055248,-1.964545,THW,HNDSHWT,,Europe/London,0,2,910GHNDSHWT,0
9100SMLHTH3,Small Heath (Platform 3),52.4636809,-1.8593194,SMA,SMLHTH,,Europe/London,0,3,910GSMLHTH,0
9100SPRD2,Spring Road (Platform 2),52.444262,-1.8362585,SRI,SPRD,,Europe/London,0,2,910GSPRD,0
9100HLGN2,Hall Green (Platform 2),52.4369843,-1.8455704,HLG,HLGN,,Europe/London,0,2,910GHLGN,0
9100YRDLYWD1,Yardley Wood (Platform 1),52.421023,-1.8545598,YRD,YRDLYWD,,Europe/London,0,1,910GYRDLYWD,0
9100SHIRLEY2,Shirley (Platform 2),52.4035742,-1.8451962,SRL,SHIRLEY,,Europe/London,0,2,910GSHIRLEY,0
9100WYTH2,Wythall (Platform 2),52.3800791,-1.8654572,WYT,WYTH,,Europe/London,0,2,910GWYTH,0
9100THELAKS2,The Lakes (Warks) (Platform 2),52.3590972,-1.8446544,TLK,THELAKS,,Europe/London,0,2,910GTHELAKS,0
9100WDND1,Wood End (Platform 1),52.3443845,-1.8444546,WDE,WDND,,Europe/London,0,1,910GWDND,0
9100WOTONWN1,Wootton Wawen (Platform 1),52.2658372,-1.7845997,WWW,WOTONWN,,Europe/London,0,1,910GWOTONWN,0
9100MSBTN2,Marsh Barton (Platform 2),50.7043896,-3.521486,MBT,MSBTN,,Europe/London,1,2,910GMSBTN,0
9100DIGBY1,Digby & Sowton (Platform 1),50.7142155,-3.4739411,DIG,DIGBY,,Europe/London,1,1,910GDIGBY,0
9100NWCOURT1,Newcourt (Platform 1),50.7027216,-3.4725586,NCO,NWCOURT,,Europe/London,1,1,910GNWCOURT,0
9100TOPSHAM1,Topsham (Platform 1),50.685645,-3.4637875,TOP,TOPSHAM,,Europe/London,0,1,910GTOPSHAM,0
9100LYMPSTN1,Lympstone Village (Platform 1),50.6484198,-3.4310966,LYM,LYMPSTN,,Europe/London,0,1,910GLYMPSTN,0
9100SOLIHUL1,Solihull (Platform 1),52.4146286,-1.7888672,SOL,SOLIHUL,,Europe/London,1,1,910GSOLIHUL,0
9100ACTONML4,Acton Main Line (Platform 4),51.5169789,-0.2679825,AML,ACTONML,,Europe/London,1,4,910GACTONML,0
9100HMWTHY1,Hamworthy (Platform 1),50.7253686,-2.0190513,HAM,HMWTHY,,Europe/London,0,1,910GHMWTHY,0
9100PSTONE1,Parkstone (Dorset) (Platform 1),50.7229607,-1.9478482,PKS,PSTONE,,Europe/London,0,1,910GPSTONE,0
9100COMONDL1,Commondale (Platform 1),54.4812297,-0.9749222,COM,COMONDL,,Europe/London,2,1,910GCOMONDL,0
9100GLAISDL2,Glaisdale (Platform 2),54.4395064,-0.793929,GLS,GLAISDL,,Europe/London,0,2,910GGLAISDL,0
9100BOOKHAM1,Bookham (Platform 1),51.2888353,-0.3838753,BKA,BOOKHAM,,Europe/London,0,1,910GBOOKHAM,0
9100EWELW1,Ewell West (Platform 1),51.3501115,-0.257131,EWW,EWELW,,Europe/London,1,1,910GEWELW,0
9100STLEIGH1,Stoneleigh (Platform 1),51.3638988,-0.2479641,SNL,STLEIGH,,Europe/London,2,1,910GSTLEIGH,0
9100WRCSTRP1,Worcester Park (Platform 1),51.3814192,-0.244985,WCP,WRCSTRP,,Europe/London,1,1,910GWRCSTRP,0
9100NRBITON2,Norbiton (Platform 2),51.4123032,-0.2840976,NBT,NRBITON,,Europe/London,0,2,910GNRBITON,0
9100TEDNGTN1,Teddington (Platform 1),51.4244662,-0.3325731,TED,TEDNGTN,,Europe/London,0,1,910GTEDNGTN,0
9100FULWELL2,Fulwell (Platform 2),51.4337598,-0.3496851,FLW,FULWELL,,Europe/London,2,2,910GFULWELL,0
9100HAMPTON2,Hampton (London) (Platform 2),51.4159079,-0.3721547,HMP,HAMPTON,,Europe/London,0,2,910GHAMPTON,0
9100KMPTNPK2,Kempton Park (Platform 2),51.4210039,-0.4094874,KMP,KMPTNPK,,Europe/London,0,2,910GKMPTNPK,0
9100SUNBURY2,Sunbury (Platform 2),51.418324,-0.4173517,SUU,SUNBURY,,Europe/London,0,2,910GSUNBURY,0
9100UHALIFD2,Upper Halliford (Platform 2),51.4132081,-0.4307971,UPH,UHALIFD,,Europe/London,0,2,910GUHALIFD,0
9100PSLDAWH2,Portslade (Platform 2),50.8357626,-0.2052986,PLD,PSLDAWH,,Europe/London,0,2,910GPSLDAWH,0
9100STHWICK2,Southwick (Platform 2),50.8324943,-0.2371971,SWK,STHWICK,,Europe/London,0,2,910GSTHWICK,0
9100LNCG2,Lancing (Platform 2),50.8270176,-0.3232037,LAC,LNCG,,Europe/London,0,2,910GLNCG,0
9100WWRTHNG2,West Worthing (Platform 2),50.818373,-0.3933519,WWO,WWRTHNG,,Europe/London,0,2,910GWWRTHNG,0
9100DRNGTOS2,Durrington-on-Sea (Platform 2),50.8174419,-0.4114787,DUR,DRNGTOS,,Europe/London,0,2,910GDRNGTOS,0
9100GORNGBS2,Goring-by-Sea (Platform 2),50.8176931,-0.4331815,GBS,GORNGBS,,Europe/London,0,2,910GGORNGBS,0
9100LDYW2,Ladywell (Platform 2),51.4560257,-0.0191917,LAD,LDYW,,Europe/London,0,2,910GLDYW,0
9100CATFBDG2,Catford Bridge (Platform 2),51.4445909,-0.0249226,CFB,CATFBDG,,Europe/London,0,2,910GCATFBDG,0
9100LSYDNHM2,Lower Sydenham (Platform 2),51.4247446,-0.0332998,LSY,LSYDNHM,,Europe/London,0,2,910GLSYDNHM,0
9100NBCKNHM2,New Beckenham (Platform 2),51.4169395,-0.0352069,NBC,NBCKNHM,,Europe/London,0,2,910GNBCKNHM,0
9100CLOCKHS2,Clock House (Platform 2),51.4087604,-0.0403022,CLK,CLOCKHS,,Europe/London,0,2,910GCLOCKHS,0
9100ELMERSE3,Elmers End (Platform 3),51.398012,-0.0497025,ELE,ELMERSE,,Europe/London,0,3,910GELMERSE,0
9100EDPK2,Eden Park (Platform 2),51.3901801,-0.0263691,EDN,EDPK,,Europe/London,0,2,910GEDPK,0
9100WWICKHM2,West Wickham (Platform 2),51.3813785,-0.0144819,WWI,WWICKHM,,Europe/London,0,2,910GWWICKHM,0
9100PLUCKLY1,Pluckley (Platform 1),51.1564849,0.7465822,PLC,PLUCKLY,,Europe/London,0,1,910GPLUCKLY,0
9100STURRY1,Sturry (Platform 1),51.300986,1.1222644,STU,STURRY,,Europe/London,0,1,910GSTURRY,0
9100CHARTHM1,Chartham (Platform 1),51.2571747,1.0179051,CRT,CHARTHM,,Europe/London,0,1,910GCHARTHM,0
9100CLMN1,Chilham (Platform 1),51.2444245,0.9760562,CIL,CLMN,,Europe/London,0,1,910GCLMN,0
9100WYEE1,Wye (Platform 1),51.1853805,0.9294965,WYE,WYEE,,Europe/London,0,1,910GWYEE,0
9100PARTON2,Parton (Platform 2),54.5704232,-3.5807799,PRN,PARTON,,Europe/London,2,2,910GPARTON,0
9100HNGT2,Harrington (Platform 2),54.6135197,-3.5655496,HRR,HNGT,,Europe/London,0,2,910GHNGT,0
9100FLIMBY2,Flimby (Platform 2),54.6899875,-3.5205306,FLM,FLIMBY,,Europe/London,0,2,910GFLIMBY,0
9100ASPTRIA2,Aspatria (Platform 2),54.7589539,-3.3318813,ASP,ASPTRIA,,Europe/London,0,2,910GASPTRIA,0
9100DALSTON2,Dalston (Cumbria) (Platform 2),54.846165,-2.9885758,DLS,DALSTON,,Europe/London,0,2,910GDALSTON,0
9100HBROOMS2,High Brooms (Platform 2),51.1497792,0.2779622,HIB,HBROOMS,,Europe/London,0,2,910GHBROOMS,0
9100WADHRST2,Wadhurst (Platform 2),51.0733883,0.3130406,WAD,WADHRST,,Europe/London,0,2,910GWADHRST,0
9100BATTLE2,Battle (Platform 2),50.9128867,0.4949233,BAT,BATTLE,,Europe/London,0,2,910GBATTLE,0
9100CHORLEY2,Chorley (Platform 2),53.6529842,-2.626934,CRL,CHORLEY,,Europe/London,1,2,910GCHORLEY,0
9100DARNALL1,Darnall (Platform 1),53.3845451,-1.4123572,DAN,DARNALL,,Europe/London,1,1,910GDARNALL,0
9100WDHOUSE1,Woodhouse (Platform 1),53.3637962,-1.3573689,WDH,WDHOUSE,,Europe/London,0,1,910GWDHOUSE,0
9100KVTNBDG1,Kiveton Bridge (Platform 1),53.3409362,-1.2670815,KIV,KVTNBDG,,Europe/London,1,1,910GKVTNBDG,0
9100KVTNPK1,Kiveton Park (Platform 1),53.3367636,-1.2395678,KVP,KVTNPK,,Europe/London,0,1,910GKVTNPK,0
9100GBGHLRD1,Gainsborough Lea Road (Platform 1),53.3860875,-0.7693785,GBL,GBGHLRD,,Europe/London,0,1,910GGBGHLRD,0
9100SAXILBY1,Saxilby (Platform 1),53.267314,-0.6645836,SXY,SAXILBY,,Europe/London,1,1,910GSAXILBY,0
9100DLREOCH2,Dalreoch (Platform 2),55.9472801,-4.577251,DLR,DLREOCH,,Europe/London,0,2,910GDLREOCH,0
9100CDRS2,Cardross (Platform 2),55.9603526,-4.6532942,CDR,CDRS,,Europe/London,0,2,910GCDRS,0
9100CRGDRN1,Craigendoran (Platform 1),55.9948435,-4.7119204,CGD,CRGDRN,,Europe/London,1,1,910GCRGDRN,0
9100PLKLHDW2,Pollokshields West (Platform 2),55.8376663,-4.2758405,PLW,PLKLHDW,,Europe/London,2,2,910GPLKLHDW,0
9100MAXWLPK2,Maxwell Park (Platform 2),55.8376818,-4.2885458,MAX,MAXWLPK,,Europe/London,2,2,910GMAXWLPK,0
9100SHWLNDS2,Shawlands (Platform 2),55.8293953,-4.2924269,SHL,SHWLNDS,,Europe/London,2,2,910GSHWLNDS,0
9100PLKSHWE2,Pollokshaws East (Platform 2),55.8248032,-4.2871464,PWE,PLKSHWE,,Europe/London,2,2,910GPLKSHWE,0
9100LNSD2,Langside (Platform 2),55.8209593,-4.2763033,LGS,LNSD,,Europe/London,2,2,910GLNSD,0
9100ABRYSTH1,Aberystwyth (Platform 1),52.4138938,-4.0815468,AYW,ABRYSTH,,Europe/London,1,1,910GABRYSTH,0
9100BOWSTRT1,Bow Street (Platform 1),52.4399137,-4.0303603,BOW,BOWSTRT,,Europe/London,1,1,910GBOWSTRT,0
9100BORTH1,Borth (Platform 1),52.4909831,-4.0496662,BRH,BORTH,,Europe/London,0,1,910GBORTH,0
9100CARSWS1,Caersws (Platform 1),52.5161538,-3.4325855,CWS,CARSWS,,Europe/London,0,1,910GCARSWS,0
9100BALLOCH1,Balloch (Platform 1),56.0023629,-4.5832835,BHC,BALLOCH,,Europe/London,1,1,910GBALLOCH,0
9100ALXANDR1,Alexandria (Platform 1),55.9852719,-4.5773243,ALX,ALXANDR,,Europe/London,1,1,910GALXANDR,0
9100RENTON1,Renton (Platform 1),55.9703118,-4.5863543,RTN,RENTON,,Europe/London,1,1,910GRENTON,0
9100DLREOCH1,Dalreoch (Platform 1),55.9472801,-4.577251,DLR,DLREOCH,,Europe/London,0,1,910GDLREOCH,0
9100DMBRTNE1,Dumbarton East (Platform 1),55.9423477,-4.5540413,DBE,DMBRTNE,,Europe/London,2,1,910GDMBRTNE,0
9100BOWLING1,Bowling (Platform 1),55.9310584,-4.4931921,BWG,BOWLING,,Europe/London,0,1,910GBOWLING,0
9100KLPTRCK1,Kilpatrick (Platform 1),55.9241104,-4.452836,KPT,KLPTRCK,,Europe/London,0,1,910GKLPTRCK,0
9100CNTY2,Carntyne (Platform 2),55.8548998,-4.1791751,CAY,CNTY,,Europe/London,0,2,910GCNTY,0
9100SHTLSTN2,Shettleston (Platform 2),55.8536445,-4.1595853,SLS,SHTLSTN,,Europe/London,0,2,910GSHTLSTN,0
9100GARROWH2,Garrowhill (Platform 2),55.855046,-4.129839,GAR,GARROWH,,Europe/London,0,2,910GGARROWH,0
9100ESHS2,Easterhouse (Platform 2),55.8598389,-4.1068764,EST,ESHS,,Europe/London,0,2,910GESHS,0
9100BLAIRHL2,Blairhill (Platform 2),55.8665156,-4.0427186,BAI,BLAIRHL,,Europe/London,1,2,910GBLAIRHL,0
9100COATBDS2,Coatbridge Sunnyside (Platform 2),55.8669052,-4.0279569,CBS,COATBDS,,Europe/London,0,2,910GCOATBDS,0
9100COATDYK2,Coatdyke (Platform 2),55.864404,-4.0049999,COA,COATDYK,,Europe/London,2,2,910GCOATDYK,0
9100WBYFLET1,West Byfleet (Platform 1),51.3396192,-0.505218,WBY,WBYFLET,,Europe/London,0,1,910GWBYFLET,0
9100BYFLANH1,Byfleet & New Haw (Platform 1),51.3496809,-0.48122,BFN,BYFLANH,,Europe/London,2,1,910GBYFLANH,0
9100HERSHAM1,Hersham (Platform 1),51.3769063,-0.3895797,HER,HERSHAM,,Europe/London,2,1,910GHERSHAM,0
9100ARNSIDE2,Arnside (Platform 2),54.202601,-2.8280672,ARN,ARNSIDE,,Europe/London,0,2,910GARNSIDE,0
9100DRTN1,Darton (Platform 1),53.5880035,-1.5307942,DRT,DRTN,,Europe/London,0,1,910GDRTN,0
9100WOMBWEL1,Wombwell (Platform 1),53.5174468,-1.4163018,WOM,WOMBWEL,,Europe/London,0,1,910GWOMBWEL,0
9100ELSC1,Elsecar (Platform 1),53.4986826,-1.427499,ELR,ELSC,,Europe/London,0,1,910GELSC,0
9100CHPLTWN1,Chapeltown (South Yorkshire) (Platform 1),53.4625006,-1.4664375,CLN,CHPLTWN,,Europe/London,0,1,910GCHPLTWN,0
9100BAYFORD1,Bayford (Platform 1),51.7579011,-0.0957274,BAY,BAYFORD,,Europe/London,0,1,910GBAYFORD,0
9100CUFFLEY1,Cuffley (Platform 1),51.7091464,-0.1097981,CUF,CUFFLEY,,Europe/London,0,1,910GCUFFLEY,0
9100CRHL1,Crews Hill (Platform 1),51.6847476,-0.1072562,CWH,CRHL,,Europe/London,2,1,910GCRHL,0
9100ENFC1,Enfield Chase (Platform 1),51.6526384,-0.0908639,ENC,ENFC,,Europe/London,2,1,910GENFC,0
9100GRPK1,Grange Park (Platform 1),51.6433292,-0.0969391,GPK,GRPK,,Europe/London,2,1,910GGRPK,0
9100WNMHILL1,Winchmore Hill (Platform 1),51.6340675,-0.1009414,WIH,WNMHILL,,Europe/London,2,1,910GWNMHILL,0
9100PALMRSG1,Palmers Green (Platform 1),51.6186609,-0.1101687,PAL,PALMRSG,,Europe/London,2,1,910GPALMRSG,0
9100BOWESPK1,Bowes Park (Platform 1),51.6071861,-0.1204848,BOP,BOWESPK,,Europe/London,2,1,910GBOWESPK,0
9100OLDST4,Old Street (Platform 4),51.5256284,-0.0876094,OLD,OLDST,,Europe/London,2,4,910GOLDST,0
9100ANGMRNG1,Angmering (Platform 1),50.8165151,-0.4881271,ANG,ANGMRNG,,Europe/London,0,1,910GANGMRNG,0
9100GORNGBS1,Goring-by-Sea (Platform 1),50.8176931,-0.4331815,GBS,GORNGBS,,Europe/London,0,1,910GGORNGBS,0
9100DRNGTOS1,Durrington-on-Sea (Platform 1),50.8174419,-0.4114787,DUR,DRNGTOS,,Europe/London,0,1,910GDRNGTOS,0
9100WWRTHNG1,West Worthing (Platform 1),50.818373,-0.3933519,WWO,WWRTHNG,,Europe/London,0,1,910GWWRTHNG,0
9100LNCG1,Lancing (Platform 1),50.8270176,-0.3232037,LAC,LNCG,,Europe/London,0,1,910GLNCG,0
9100STHWICK1,Southwick (Platform 1),50.8324943,-0.2371971,SWK,STHWICK,,Europe/London,0,1,910GSTHWICK,0
9100PSLDAWH1,Portslade (Platform 1),50.8357626,-0.2052986,PLD,PSLDAWH,,Europe/London,0,1,910GPSLDAWH,0
9100BLTRNAB2,Beltring (Platform 2),51.2045463,0.4033747,BEG,BLTRNAB,,Europe/London,0,2,910GBLTRNAB,0
9100YALDING2,Yalding (Platform 2),51.2266654,0.4121616,YAL,YALDING,,Europe/London,0,2,910GYALDING,0
9100WTRNGBY2,Wateringbury (Platform 2),51.2496596,0.4222989,WTR,WTRNGBY,,Europe/London,0,2,910GWTRNGBY,0
9100EFARLGH2,East Farleigh (Platform 2),51.2552513,0.4844783,EFL,EFARLGH,,Europe/London,0,2,910GEFARLGH,0
9100MSTONEB1,Maidstone Barracks (Platform 1),51.2770433,0.5141731,MDB,MSTONEB,,Europe/London,2,1,910GMSTONEB,0
9100AYLESFD1,Aylesford (Platform 1),51.3015328,0.4657666,AYL,AYLESFD,,Europe/London,0,1,910GAYLESFD,0
9100NWHYTHE1,New Hythe (Platform 1),51.3128389,0.4551387,NHE,NWHYTHE,,Europe/London,0,1,910GNWHYTHE,0
9100SNODLND1,Snodland (Platform 1),51.3302228,0.4484399,SDA,SNODLND,,Europe/London,0,1,910GSNODLND,0
9100HALG1,Halling (Platform 1),51.3523741,0.4451218,HAI,HALG,,Europe/London,0,1,910GHALG,0
9100CXTN1,Cuxton (Platform 1),51.373911,0.461982,CUX,CXTN,,Europe/London,0,1,910GCXTN,0
9100WWICKHM1,West Wickham (Platform 1),51.3813785,-0.0144819,WWI,WWICKHM,,Europe/London,0,1,910GWWICKHM,0
9100EDPK1,Eden Park (Platform 1),51.3901801,-0.0263691,EDN,EDPK,,Europe/London,0,1,910GEDPK,0
9100ELMERSE2,Elmers End (Platform 2),51.398012,-0.0497025,ELE,ELMERSE,,Europe/London,0,2,910GELMERSE,0
9100CLOCKHS1,Clock House (Platform 1),51.4087604,-0.0403022,CLK,CLOCKHS,,Europe/London,0,1,910GCLOCKHS,0
9100NBCKNHM1,New Beckenham (Platform 1),51.4169395,-0.0352069,NBC,NBCKNHM,,Europe/London,0,1,910GNBCKNHM,0
9100LSYDNHM1,Lower Sydenham (Platform 1),51.4247446,-0.0332998,LSY,LSYDNHM,,Europe/London,0,1,910GLSYDNHM,0
9100LDYW1,Ladywell (Platform 1),51.4560257,-0.0191917,LAD,LDYW,,Europe/London,0,1,910GLDYW,0
9100ARDRSTN1,Ardrossan Town (Platform 1),55.6398834,-4.8125364,ADN,ARDRSTN,,Europe/London,1,1,910GARDRSTN,0
9100SLCT1,Saltcoats (Platform 1),55.6338921,-4.7845808,SLT,SLCT,,Europe/London,0,1,910GSLCT,0
9100STVNSTN1,Stevenston (Platform 1),55.6342495,-4.7501074,STV,STVNSTN,,Europe/London,1,1,910GSTVNSTN,0
9100DALRY1,Dalry (Platform 1),55.7060234,-4.7111544,DLY,DALRY,,Europe/London,0,1,910GDALRY,0
9100GLGN1,Glengarnock (Platform 1),55.7390497,-4.6748068,GLG,GLGN,,Europe/London,0,1,910GGLGN,0
9100LCHWNCH1,Lochwinnoch (Platform 1),55.7871745,-4.6157219,LHW,LCHWNCH,,Europe/London,0,1,910GLCHWNCH,0
9100HOWOOD1,Howwood (Renfrewshire) (Platform 1),55.8105718,-4.5625091,HOZ,HOWOOD,,Europe/London,0,1,910GHOWOOD,0
9100MILKNPK1,Milliken Park (Platform 1),55.8248309,-4.5342076,MIN,MILKNPK,,Europe/London,0,1,910GMILKNPK,0
9100SVRNBCH1,Severn Beach (Platform 1),51.5596758,-2.6645392,SVB,SVRNBCH,,Europe/London,1,1,910GSVRNBCH,0
9100SADWRD1,St Andrews Road (Platform 1),51.5124477,-2.6964411,SAR,SADWRD,,Europe/London,2,1,910GSADWRD,0
9100SEMILLS1,Sea Mills (Platform 1),51.4795006,-2.6496514,SML,SEMILLS,,Europe/London,0,1,910GSEMILLS,0
9100REDLAND1,Redland (Platform 1),51.4684317,-2.5987661,RDA,REDLAND,,Europe/London,1,1,910GREDLAND,0
9100MONPELR1,Montpelier (Platform 1),51.4683479,-2.5886798,MTP,MONPELR,,Europe/London,1,1,910GMONPELR,0
9100NWMKET1,Newmarket (Platform 1),52.238341,0.4073491,NMK,NWMKET,,Europe/London,0,1,910GNWMKET,0
9100KENNETT1,Kennett (Platform 1),52.2772508,0.4900933,KNE,KENNETT,,Europe/London,1,1,910GKENNETT,0
9100THUSTON2,Thurston (Platform 2),52.2499275,0.8086544,TRS,THUSTON,,Europe/London,0,2,910GTHUSTON,0
9100ELMSWEL2,Elmswell (Platform 2),52.2381588,0.9125333,ESW,ELMSWEL,,Europe/London,0,2,910GELMSWEL,0
9100NEEDHAM2,Needham Market (Platform 2),52.1526149,1.0555379,NMT,NEEDHAM,,Europe/London,0,2,910GNEEDHAM,0
9100MORETON2,Moreton (Dorset) (Platform 2),50.701118,-2.3138473,MTN,MORETON,,Europe/London,0,2,910GMORETON,0
9100NMILTON2,New Milton (Platform 2),50.7557623,-1.6576697,NWM,NMILTON,,Europe/London,0,2,910GNMILTON,0
9100HMWTHY2,Hamworthy (Platform 2),50.7253686,-2.0190513,HAM,HMWTHY,,Europe/London,0,2,910GHMWTHY,0
9100PSTONE2,Parkstone (Dorset) (Platform 2),50.7229607,-1.9478482,PKS,PSTONE,,Europe/London,0,2,910GPSTONE,0
9100CHRISTC2,Christchurch (Platform 2),50.7383709,-1.7847306,CHR,CHRISTC,,Europe/London,0,2,910GCHRISTC,0
9100UPWEY2,Upwey (Platform 2),50.6485094,-2.466093,UPW,UPWEY,,Europe/London,0,2,910GUPWEY,0
9100LYNDHRD2,Ashurst New Forest (Platform 2),50.8898464,-1.5264572,ANF,LYNDHRD,,Europe/London,0,2,910GLYNDHRD,0
9100SWAY2,Sway (Platform 2),50.7847131,-1.6099505,SWY,SWAY,,Europe/London,0,2,910GSWAY,0
9100HINTONA2,Hinton Admiral (Platform 2),50.752603,-1.7136258,HNA,HINTONA,,Europe/London,0,2,910GHINTONA,0
9100POKSDWN2,Pokesdown (Platform 2),50.7311874,-1.8267335,POK,POKSDWN,,Europe/London,2,2,910GPOKSDWN,0
9100ERLY2,Earley (Platform 2),51.4410298,-0.9177114,EAR,ERLY,,Europe/London,0,2,910GERLY,0
9100WINETGL1,Winnersh Triangle (Platform 1),51.4367674,-0.8918298,WTI,WINETGL,,Europe/London,2,1,910GWINETGL,0
9100WINERSH1,Winnersh (Platform 1),51.4307527,-0.8779199,WNS,WINERSH,,Europe/London,0,1,910GWINERSH,0
9100MHERON1,Martins Heron (Platform 1),51.4074442,-0.7242433,MAO,MHERON,,Europe/London,0,1,910GMHERON,0
9100SUNNGDL1,Sunningdale (Platform 1),51.3921459,-0.6332427,SNG,SUNNGDL,,Europe/London,0,1,910GSUNNGDL,0
9100LNGCROS1,Longcross (Platform 1),51.385277,-0.5950836,LNG,LNGCROS,,Europe/London,2,1,910GLNGCROS,0
9100EGHAM1,Egham (Platform 1),51.4294065,-0.5465778,EGH,EGHAM,,Europe/London,0,1,910GEGHAM,0
9100BUCKNHM2,Buckenham (Platform 2),52.597696,1.4702099,BUC,BUCKNHM,,Europe/London,0,2,910GBUCKNHM,0
9100CNTLEY2,Cantley (Platform 2),52.5787207,1.5136275,CNY,CNTLEY,,Europe/London,0,2,910GCNTLEY,0
9100RDHAMN2,Reedham (Norfolk) (Platform 2),52.564446,1.559524,REE,RDHAMN,,Europe/London,0,2,910GRDHAMN,0
9100HADISCO2,Haddiscoe (Platform 2),52.5290248,1.6229897,HAD,HADISCO,,Europe/London,0,2,910GHADISCO,0
9100SMRLYTN2,Somerleyton (Platform 2),52.5101722,1.6521994,SYT,SMRLYTN,,Europe/London,0,2,910GSMRLYTN,0
9100OULTNBN2,Oulton Broad North (Platform 2),52.4777293,1.7161761,OUN,OULTNBN,,Europe/London,0,2,910GOULTNBN,0
9100ALSAGER2,Alsager (Platform 2),53.0930252,-2.2988432,ASG,ALSAGER,,Europe/London,0,2,910GALSAGER,0
9100STONE2,Stone (Staffs) (Platform 2),52.9084696,-2.1554718,SNE,STONE,,Europe/London,0,2,910GSTONE,0
9100WHORNDN2,West Horndon (Platform 2),51.5678537,0.3406801,WHR,WHORNDN,,Europe/London,0,2,910GWHORNDN,0
9100FRNCMB2,Farncombe (Platform 2),51.1971446,-0.6043738,FNC,FRNCMB,,Europe/London,0,2,910GFRNCMB,0
9100LNSD1,Langside (Platform 1),55.8209593,-4.2763033,LGS,LNSD,,Europe/London,2,1,910GLNSD,0
9100PLKSHWE1,Pollokshaws East (Platform 1),55.8248032,-4.2871464,PWE,PLKSHWE,,Europe/London,2,1,910GPLKSHWE,0
